[{"locationID": 34256317, "brandID": 3, "storeID": 6618, "latitude": -27.615484, "longitude": 152.76184, "storeName": "Ipswich", "address": "Corner Gorden Street And Limestone Street", "suburb": "Ipswich", "postcode": "4305", "state": "QLD", "phone": "(07) 3810 0180", "distance": 5.061, "fax": "", "locationFeatures": null, "openingHours": {"mondayOpen": "09:00", "mondayClose": "21:00", "tuesdayOpen": "09:00", "tuesdayClose": "21:00", "wednesdayOpen": "09:00", "wednesdayClose": "21:00", "thursdayOpen": "09:00", "thursdayClose": "21:00", "fridayOpen": "09:00", "fridayClose": "21:00", "saturdayOpen": "09:00", "saturdayClose": "19:00", "sundayOpen": "09:00", "sundayClose": "18:00"}, "operationalInfo": {"storeManager": "KYLE O'SHEA", "areaRegion": "QLD8", "areaRegionMgr": "Konrad Kolmet (Secondment)", "regionZone": "QLD", "regionZoneMgr": "Mat Davey"}, "openingHoursExceptions": [], "isOpen": true, "openingDate": null, "closingDate": null, "cncEnabled": true, "cncStore": true}, {"locationID": 34256302, "brandID": 3, "storeID": 6464, "latitude": -27.620616, "longitude": 152.779784, "storeName": "Silkstone Village", "address": "Corner Blackstone Road And Grange Road", "suburb": "Silkstone", "postcode": "4304", "state": "QLD", "phone": "(07) 3069 5680", "distance": 5.303, "fax": "", "locationFeatures": null, "openingHours": {"mondayOpen": "09:00", "mondayClose": "19:00", "tuesdayOpen": "09:00", "tuesdayClose": "19:00", "wednesdayOpen": "09:00", "wednesdayClose": "20:00", "thursdayOpen": "09:00", "thursdayClose": "20:00", "fridayOpen": "09:00", "fridayClose": "21:00", "saturdayOpen": "09:00", "saturdayClose": "21:00", "sundayOpen": "09:00", "sundayClose": "18:00"}, "operationalInfo": {"storeManager": "TIFFANY DAVIES", "areaRegion": "QLD8", "areaRegionMgr": "Konrad Kolmet (Secondment)", "regionZone": "QLD", "regionZoneMgr": "Mat Davey"}, "openingHoursExceptions": [], "isOpen": true, "openingDate": null, "closingDate": null, "cncEnabled": true, "cncStore": true}, {"locationID": 34256012, "brandID": 3, "storeID": 8380, "latitude": -27.588869, "longitude": 152.740805, "storeName": "Mihi Creek Tavern Barn", "address": "26 Fernvale Road", "suburb": "Brassall", "postcode": "4305", "state": "QLD", "phone": "(07) 3726 9627", "distance": 7.719, "fax": "", "locationFeatures": null, "openingHours": {"mondayOpen": "10:00", "mondayClose": "20:00", "tuesdayOpen": "10:00", "tuesdayClose": "20:00", "wednesdayOpen": "10:00", "wednesdayClose": "20:00", "thursdayOpen": "10:00", "thursdayClose": "21:00", "fridayOpen": "10:00", "fridayClose": "21:00", "saturdayOpen": "10:00", "saturdayClose": "21:00", "sundayOpen": "10:00", "sundayClose": "20:00"}, "operationalInfo": {"storeManager": "THOMAS HAYMAN", "areaRegion": "QLD8", "areaRegionMgr": "Konrad Kolmet (Secondment)", "regionZone": "QLD", "regionZoneMgr": "Mat Davey"}, "openingHoursExceptions": [], "isOpen": true, "openingDate": null, "closingDate": null, "cncEnabled": true, "cncStore": true}, {"locationID": 34256310, "brandID": 3, "storeID": 6483, "latitude": -27.570625, "longitude": 152.793671, "storeName": "Karalee", "address": "29-51 Cnr Junctoin And Essex Street", "suburb": "Karalee", "postcode": "4306", "state": "QLD", "phone": "(07) 3413 2580", "distance": 10.71, "fax": "", "locationFeatures": null, "openingHours": {"mondayOpen": "09:00", "mondayClose": "21:00", "tuesdayOpen": "09:00", "tuesdayClose": "21:00", "wednesdayOpen": "09:00", "wednesdayClose": "21:00", "thursdayOpen": "09:00", "thursdayClose": "21:00", "fridayOpen": "09:00", "fridayClose": "21:00", "saturdayOpen": "09:00", "saturdayClose": "21:00", "sundayOpen": "09:00", "sundayClose": "19:00"}, "operationalInfo": {"storeManager": "GLENN BENECKE", "areaRegion": "QLD8", "areaRegionMgr": "Konrad Kolmet (Secondment)", "regionZone": "QLD", "regionZoneMgr": "Mat Davey"}, "openingHoursExceptions": [], "isOpen": true, "openingDate": null, "closingDate": null, "cncEnabled": true, "cncStore": true}, {"locationID": 34256406, "brandID": 3, "storeID": 6535, "latitude": -27.646412, "longitude": 152.87173, "storeName": "Redbank Plains", "address": "393 Redbank Plains Road", "suburb": "Redbank Plains", "postcode": "4301", "state": "QLD", "phone": "(07) 3201 9380", "distance": 11.175, "fax": "", "locationFeatures": null, "openingHours": {"mondayOpen": "09:00", "mondayClose": "19:00", "tuesdayOpen": "09:00", "tuesdayClose": "19:00", "wednesdayOpen": "09:00", "wednesdayClose": "19:00", "thursdayOpen": "09:00", "thursdayClose": "20:00", "fridayOpen": "09:00", "fridayClose": "20:00", "saturdayOpen": "09:00", "saturdayClose": "20:00", "sundayOpen": "09:00", "sundayClose": "18:00"}, "operationalInfo": {"storeManager": "CINDY LARCOMBE", "areaRegion": "QLD8", "areaRegionMgr": "Konrad Kolmet (Secondment)", "regionZone": "QLD", "regionZoneMgr": "Mat Davey"}, "openingHoursExceptions": [], "isOpen": true, "openingDate": null, "closingDate": null, "cncEnabled": true, "cncStore": true}, {"locationID": 34256308, "brandID": 3, "storeID": 6478, "latitude": -27.676598, "longitude": 152.902948, "storeName": "Springfield Orion", "address": "1 Main Street", "suburb": "Springfield Central", "postcode": "4300", "state": "QLD", "phone": "(07) 3470 3180", "distance": 13.909, "fax": "", "locationFeatures": null, "openingHours": {"mondayOpen": "09:00", "mondayClose": "20:00", "tuesdayOpen": "09:00", "tuesdayClose": "20:00", "wednesdayOpen": "09:00", "wednesdayClose": "20:00", "thursdayOpen": "09:00", "thursdayClose": "21:00", "fridayOpen": "09:00", "fridayClose": "21:00", "saturdayOpen": "09:00", "saturdayClose": "21:00", "sundayOpen": "09:00", "sundayClose": "18:00"}, "operationalInfo": {"storeManager": "JESSICA BUCKINGHAM", "areaRegion": "QLD8", "areaRegionMgr": "Konrad Kolmet (Secondment)", "regionZone": "QLD", "regionZoneMgr": "Mat Davey"}, "openingHoursExceptions": [], "isOpen": true, "openingDate": null, "closingDate": null, "cncEnabled": true, "cncStore": true}, {"locationID": 34256078, "brandID": 3, "storeID": 6014, "latitude": -27.555187, "longitude": 152.922543, "storeName": "Middle Park", "address": "Corner Riverhills Road And Horizon Road", "suburb": "Middle Park", "postcode": "4074", "state": "QLD", "phone": "(07) 3723 3880", "distance": 19.223, "fax": "", "locationFeatures": null, "openingHours": {"mondayOpen": "09:00", "mondayClose": "20:00", "tuesdayOpen": "09:00", "tuesdayClose": "20:00", "wednesdayOpen": "09:00", "wednesdayClose": "20:00", "thursdayOpen": "09:00", "thursdayClose": "20:00", "fridayOpen": "09:00", "fridayClose": "21:00", "saturdayOpen": "09:00", "saturdayClose": "21:00", "sundayOpen": "10:00", "sundayClose": "19:00"}, "operationalInfo": {"storeManager": "JOANNE GRANT", "areaRegion": "QLD8", "areaRegionMgr": "Konrad Kolmet (Secondment)", "regionZone": "QLD", "regionZoneMgr": "Mat Davey"}, "openingHoursExceptions": [], "isOpen": true, "openingDate": null, "closingDate": null, "cncEnabled": true, "cncStore": true}, {"locationID": 34256412, "brandID": 3, "storeID": 6542, "latitude": -27.624931, "longitude": 152.967925, "storeName": "Forest Lake", "address": "235 Forest Lake Boulevard", "suburb": "Forest Lake", "postcode": "4078", "state": "QLD", "phone": "(07) 3714 2580", "distance": 19.654, "fax": "", "locationFeatures": null, "openingHours": {"mondayOpen": "09:00", "mondayClose": "20:00", "tuesdayOpen": "09:00", "tuesdayClose": "20:00", "wednesdayOpen": "09:00", "wednesdayClose": "20:00", "thursdayOpen": "09:00", "thursdayClose": "21:00", "fridayOpen": "09:00", "fridayClose": "21:00", "saturdayOpen": "09:00", "saturdayClose": "20:00", "sundayOpen": "09:00", "sundayClose": "18:00"}, "operationalInfo": {"storeManager": "BRENDAN DIETRICH", "areaRegion": "QLD8", "areaRegionMgr": "Konrad Kolmet (Secondment)", "regionZone": "QLD", "regionZoneMgr": "Mat Davey"}, "openingHoursExceptions": [], "isOpen": true, "openingDate": null, "closingDate": null, "cncEnabled": true, "cncStore": true}]