[{"locationID": 34256348, "brandID": 3, "storeID": 6688, "latitude": -26.773129, "longitude": 153.122386, "storeName": "Currimundi", "address": "Corner Bellara Drive And Nicklin Way", "suburb": "Currimundi", "postcode": "4551", "state": "QLD", "phone": "(07) 3726 9676", "distance": 1.354, "fax": "", "locationFeatures": null, "openingHours": {"mondayOpen": "09:00", "mondayClose": "20:00", "tuesdayOpen": "09:00", "tuesdayClose": "20:00", "wednesdayOpen": "09:00", "wednesdayClose": "20:00", "thursdayOpen": "09:00", "thursdayClose": "21:00", "fridayOpen": "09:00", "fridayClose": "21:00", "saturdayOpen": "09:00", "saturdayClose": "21:00", "sundayOpen": "09:00", "sundayClose": "18:00"}, "operationalInfo": {"storeManager": "ADRIAN MALOCCA", "areaRegion": "QLD6", "areaRegionMgr": "Lisa Hartnett", "regionZone": "QLD", "regionZoneMgr": "Mat Davey"}, "openingHoursExceptions": [], "isOpen": true, "openingDate": null, "closingDate": null, "cncEnabled": true, "cncStore": true}, {"locationID": 34256246, "brandID": 3, "storeID": 6262, "latitude": -26.779865, "longitude": 153.121732, "storeName": "Aroona", "address": "130 Beerburram Street", "suburb": "Aroona", "postcode": "4551", "state": "QLD", "phone": "(07) 3726 9687", "distance": 1.535, "fax": "", "locationFeatures": null, "openingHours": {"mondayOpen": "10:00", "mondayClose": "19:00", "tuesdayOpen": "10:00", "tuesdayClose": "19:00", "wednesdayOpen": "10:00", "wednesdayClose": "19:00", "thursdayOpen": "10:00", "thursdayClose": "19:00", "fridayOpen": "10:00", "fridayClose": "20:00", "saturdayOpen": "10:00", "saturdayClose": "19:00", "sundayOpen": "10:00", "sundayClose": "18:00"}, "operationalInfo": {"storeManager": "MARK HANTERINK", "areaRegion": "QLD6", "areaRegionMgr": "Lisa Hartnett", "regionZone": "QLD", "regionZoneMgr": "Mat Davey"}, "openingHoursExceptions": [], "isOpen": true, "openingDate": null, "closingDate": null, "cncEnabled": true, "cncStore": true}, {"locationID": 34256247, "brandID": 3, "storeID": 6263, "latitude": -26.7599, "longitude": 153.124453, "storeName": "Wurtulla", "address": "Nicklin Way", "suburb": "Wurtulla", "postcode": "4575", "state": "QLD", "phone": "(07) 3726 9677", "distance": 2.071, "fax": "", "locationFeatures": null, "openingHours": {"mondayOpen": "09:00", "mondayClose": "20:00", "tuesdayOpen": "09:00", "tuesdayClose": "20:00", "wednesdayOpen": "09:00", "wednesdayClose": "20:00", "thursdayOpen": "09:00", "thursdayClose": "20:00", "fridayOpen": "09:00", "fridayClose": "21:00", "saturdayOpen": "09:00", "saturdayClose": "20:00", "sundayOpen": "09:00", "sundayClose": "19:00"}, "operationalInfo": {"storeManager": "BONNIE MYERS", "areaRegion": "QLD6", "areaRegionMgr": "Lisa Hartnett", "regionZone": "QLD", "regionZoneMgr": "Mat Davey"}, "openingHoursExceptions": [], "isOpen": true, "openingDate": null, "closingDate": null, "cncEnabled": true, "cncStore": true}, {"locationID": 34256245, "brandID": 3, "storeID": 6261, "latitude": -26.77595, "longitude": 153.132773, "storeName": "Currimundi Barn", "address": "32 Buderim Street", "suburb": "Currimundi", "postcode": "4551", "state": "QLD", "phone": "(07) 3726 9617", "distance": 2.271, "fax": "", "locationFeatures": null, "openingHours": {"mondayOpen": "10:00", "mondayClose": "21:00", "tuesdayOpen": "10:00", "tuesdayClose": "21:00", "wednesdayOpen": "10:00", "wednesdayClose": "21:00", "thursdayOpen": "10:00", "thursdayClose": "21:00", "fridayOpen": "10:00", "fridayClose": "21:00", "saturdayOpen": "10:00", "saturdayClose": "21:00", "sundayOpen": "10:00", "sundayClose": "20:00"}, "operationalInfo": {"storeManager": "DEANNE MURPHY", "areaRegion": "QLD6", "areaRegionMgr": "Lisa Hartnett", "regionZone": "QLD", "regionZoneMgr": "Mat Davey"}, "openingHoursExceptions": [], "isOpen": true, "openingDate": null, "closingDate": null, "cncEnabled": true, "cncStore": true}, {"locationID": 34256349, "brandID": 3, "storeID": 6689, "latitude": -26.802514, "longitude": 153.125112, "storeName": "Stocklands", "address": "47 Bowman Road", "suburb": "Caloundra", "postcode": "4551", "state": "QLD", "phone": "(07) 3734 0811", "distance": 3.697, "fax": "", "locationFeatures": null, "openingHours": {"mondayOpen": "09:00", "mondayClose": "19:00", "tuesdayOpen": "09:00", "tuesdayClose": "19:00", "wednesdayOpen": "09:00", "wednesdayClose": "19:00", "thursdayOpen": "09:00", "thursdayClose": "21:00", "fridayOpen": "09:00", "fridayClose": "21:00", "saturdayOpen": "09:00", "saturdayClose": "19:00", "sundayOpen": "09:00", "sundayClose": "18:00"}, "operationalInfo": {"storeManager": "SHANE DREYER", "areaRegion": "QLD6", "areaRegionMgr": "Lisa Hartnett", "regionZone": "QLD", "regionZoneMgr": "Mat Davey"}, "openingHoursExceptions": [], "isOpen": true, "openingDate": null, "closingDate": null, "cncEnabled": true, "cncStore": true}, {"locationID": 34256114, "brandID": 3, "storeID": 2693, "latitude": -26.735451, "longitude": 153.119995, "storeName": "Birtinya", "address": "8 The Avenue", "suburb": "Birtinya", "postcode": "4575", "state": "QLD", "phone": "(07) 3074 1780", "distance": 4.274, "fax": "", "locationFeatures": null, "openingHours": {"mondayOpen": "09:00", "mondayClose": "21:00", "tuesdayOpen": "09:00", "tuesdayClose": "21:00", "wednesdayOpen": "09:00", "wednesdayClose": "21:00", "thursdayOpen": "09:00", "thursdayClose": "21:00", "fridayOpen": "09:00", "fridayClose": "21:00", "saturdayOpen": "09:00", "saturdayClose": "21:00", "sundayOpen": "09:00", "sundayClose": "18:00"}, "operationalInfo": {"storeManager": "DAVID SALTER", "areaRegion": "QLD5", "areaRegionMgr": "Randall Drysdale", "regionZone": "QLD", "regionZoneMgr": "Mat Davey"}, "openingHoursExceptions": [], "isOpen": true, "openingDate": null, "closingDate": null, "cncEnabled": true, "cncStore": true}, {"locationID": 34256346, "brandID": 3, "storeID": 6686, "latitude": -26.800813, "longitude": 153.142825, "storeName": "Kings Beach Tavern Barn", "address": "43 Burgess Street", "suburb": "Caloundra", "postcode": "4551", "state": "QLD", "phone": "(07) 3726 9623", "distance": 4.417, "fax": "", "locationFeatures": null, "openingHours": {"mondayOpen": "10:00", "mondayClose": "19:00", "tuesdayOpen": "10:00", "tuesdayClose": "19:00", "wednesdayOpen": "10:00", "wednesdayClose": "19:00", "thursdayOpen": "10:00", "thursdayClose": "20:00", "fridayOpen": "10:00", "fridayClose": "21:00", "saturdayOpen": "10:00", "saturdayClose": "21:00", "sundayOpen": "10:00", "sundayClose": "19:00"}, "operationalInfo": {"storeManager": "LUKE VEARING", "areaRegion": "QLD6", "areaRegionMgr": "Lisa Hartnett", "regionZone": "QLD", "regionZoneMgr": "Mat Davey"}, "openingHoursExceptions": [], "isOpen": true, "openingDate": null, "closingDate": null, "cncEnabled": true, "cncStore": true}, {"locationID": 34256248, "brandID": 3, "storeID": 6264, "latitude": -26.725321, "longitude": 153.129509, "storeName": "Warana", "address": "239 Nicklin Way", "suburb": "Warana", "postcode": "4575", "state": "QLD", "phone": "(07) 3726 9610", "distance": 5.597, "fax": "", "locationFeatures": null, "openingHours": {"mondayOpen": "10:00", "mondayClose": "19:00", "tuesdayOpen": "10:00", "tuesdayClose": "19:00", "wednesdayOpen": "10:00", "wednesdayClose": "19:00", "thursdayOpen": "10:00", "thursdayClose": "20:00", "fridayOpen": "10:00", "fridayClose": "20:00", "saturdayOpen": "10:00", "saturdayClose": "20:00", "sundayOpen": "10:00", "sundayClose": "18:00"}, "operationalInfo": {"storeManager": "OLIVER HENSBY", "areaRegion": "QLD6", "areaRegionMgr": "Lisa Hartnett", "regionZone": "QLD", "regionZoneMgr": "Mat Davey"}, "openingHoursExceptions": [], "isOpen": true, "openingDate": null, "closingDate": null, "cncEnabled": true, "cncStore": true}, {"locationID": 34256307, "brandID": 3, "storeID": 6476, "latitude": -26.714108, "longitude": 153.060819, "storeName": "Sippy Downs", "address": "111 Sippy Downs Drive", "suburb": "Sippy Downs", "postcode": "4556", "state": "QLD", "phone": "(07) 5458 1280", "distance": 7.572, "fax": "", "locationFeatures": null, "openingHours": {"mondayOpen": "09:00", "mondayClose": "21:00", "tuesdayOpen": "09:00", "tuesdayClose": "21:00", "wednesdayOpen": "09:00", "wednesdayClose": "21:00", "thursdayOpen": "09:00", "thursdayClose": "21:00", "fridayOpen": "09:00", "fridayClose": "21:00", "saturdayOpen": "09:00", "saturdayClose": "21:00", "sundayOpen": "09:00", "sundayClose": "18:00"}, "operationalInfo": {"storeManager": "AARON MARTIN", "areaRegion": "QLD5", "areaRegionMgr": "Randall Drysdale", "regionZone": "QLD", "regionZoneMgr": "Mat Davey"}, "openingHoursExceptions": [], "isOpen": true, "openingDate": null, "closingDate": null, "cncEnabled": true, "cncStore": true}, {"locationID": 34256324, "brandID": 3, "storeID": 6630, "latitude": -26.703476, "longitude": 153.130455, "storeName": "Kawana Waters", "address": "119 Point Cartwright Drive", "suburb": "Buddina", "postcode": "4575", "state": "QLD", "phone": "(07) 3734 0858", "distance": 7.939, "fax": "", "locationFeatures": null, "openingHours": {"mondayOpen": "09:00", "mondayClose": "19:00", "tuesdayOpen": "09:00", "tuesdayClose": "19:00", "wednesdayOpen": "09:00", "wednesdayClose": "19:00", "thursdayOpen": "09:00", "thursdayClose": "21:00", "fridayOpen": "09:00", "fridayClose": "20:00", "saturdayOpen": "09:00", "saturdayClose": "20:00", "sundayOpen": "09:00", "sundayClose": "18:00"}, "operationalInfo": {"storeManager": "MATTHEW GOUGH", "areaRegion": "QLD5", "areaRegionMgr": "Randall Drysdale", "regionZone": "QLD", "regionZoneMgr": "Mat Davey"}, "openingHoursExceptions": [], "isOpen": true, "openingDate": null, "closingDate": null, "cncEnabled": true, "cncStore": true}, {"locationID": 34256347, "brandID": 3, "storeID": 6687, "latitude": -26.683574, "longitude": 153.070149, "storeName": "Buderim", "address": "129 King Street", "suburb": "Buderim", "postcode": "4556", "state": "QLD", "phone": "(07) 3726 9608", "distance": 10.362, "fax": "", "locationFeatures": null, "openingHours": {"mondayOpen": "10:00", "mondayClose": "19:00", "tuesdayOpen": "10:00", "tuesdayClose": "19:00", "wednesdayOpen": "10:00", "wednesdayClose": "19:00", "thursdayOpen": "10:00", "thursdayClose": "19:00", "fridayOpen": "10:00", "fridayClose": "20:00", "saturdayOpen": "10:00", "saturdayClose": "20:00", "sundayOpen": "10:00", "sundayClose": "19:00"}, "operationalInfo": {"storeManager": "CLINTON O'BRIEN", "areaRegion": "QLD6", "areaRegionMgr": "Lisa Hartnett", "regionZone": "QLD", "regionZoneMgr": "Mat Davey"}, "openingHoursExceptions": [], "isOpen": true, "openingDate": null, "closingDate": null, "cncEnabled": true, "cncStore": true}, {"locationID": 34256411, "brandID": 3, "storeID": 6541, "latitude": -26.687779, "longitude": 153.049479, "storeName": "Buderim Marketplace", "address": "67 Burnett St", "suburb": "Buderim", "postcode": "4556", "state": "QLD", "phone": "(07) 3726 9605", "distance": 10.601, "fax": "", "locationFeatures": null, "openingHours": {"mondayOpen": "09:00", "mondayClose": "19:00", "tuesdayOpen": "09:00", "tuesdayClose": "19:00", "wednesdayOpen": "09:00", "wednesdayClose": "19:00", "thursdayOpen": "09:00", "thursdayClose": "20:00", "fridayOpen": "09:00", "fridayClose": "20:00", "saturdayOpen": "09:00", "saturdayClose": "20:00", "sundayOpen": "09:00", "sundayClose": "18:00"}, "operationalInfo": {"storeManager": "LIZ URQUHART", "areaRegion": "QLD6", "areaRegionMgr": "Lisa Hartnett", "regionZone": "QLD", "regionZoneMgr": "Mat Davey"}, "openingHoursExceptions": [], "isOpen": true, "openingDate": null, "closingDate": null, "cncEnabled": true, "cncStore": true}, {"locationID": 34256401, "brandID": 3, "storeID": 6526, "latitude": -26.663034, "longitude": 153.050641, "storeName": "Buderim North", "address": "141 Jones Road", "suburb": "Buderim", "postcode": "4556", "state": "QLD", "phone": "(07) 2105 0980", "distance": 13.071, "fax": "", "locationFeatures": null, "openingHours": {"mondayOpen": "09:00", "mondayClose": "21:00", "tuesdayOpen": "09:00", "tuesdayClose": "21:00", "wednesdayOpen": "09:00", "wednesdayClose": "21:00", "thursdayOpen": "09:00", "thursdayClose": "21:00", "fridayOpen": "09:00", "fridayClose": "21:00", "saturdayOpen": "09:00", "saturdayClose": "21:00", "sundayOpen": "09:00", "sundayClose": "19:00"}, "operationalInfo": {"storeManager": "MARK BROOM", "areaRegion": "QLD6", "areaRegionMgr": "Lisa Hartnett", "regionZone": "QLD", "regionZoneMgr": "Mat Davey"}, "openingHoursExceptions": [], "isOpen": true, "openingDate": null, "closingDate": null, "cncEnabled": true, "cncStore": true}]