[{"locationID": 34256342, "brandID": 3, "storeID": 6680, "latitude": -26.396602, "longitude": 153.089525, "storeName": "Noosa Junction", "address": "Corner Tewantin Road And Sunshine Beach Road", "suburb": "Noosa Heads", "postcode": "4567", "state": "QLD", "phone": "(07) 3726 9690", "distance": 1.688, "fax": "", "locationFeatures": null, "openingHours": {"mondayOpen": "10:00", "mondayClose": "20:00", "tuesdayOpen": "10:00", "tuesdayClose": "20:00", "wednesdayOpen": "10:00", "wednesdayClose": "20:00", "thursdayOpen": "10:00", "thursdayClose": "20:00", "fridayOpen": "10:00", "fridayClose": "20:00", "saturdayOpen": "10:00", "saturdayClose": "20:00", "sundayOpen": "10:00", "sundayClose": "19:00"}, "operationalInfo": {"storeManager": "DAVID MCKEE", "areaRegion": "QLD5", "areaRegionMgr": "Randall Drysdale", "regionZone": "QLD", "regionZoneMgr": "Mat Davey"}, "openingHoursExceptions": [], "isOpen": true, "openingDate": null, "closingDate": null, "cncEnabled": true, "cncStore": true}, {"locationID": 34256344, "brandID": 3, "storeID": 6682, "latitude": -26.398932, "longitude": 153.091384, "storeName": "Noosa Heads", "address": "153 Cooyar Street", "suburb": "Noosa Heads", "postcode": "4567", "state": "QLD", "phone": "(07) 3734 0863", "distance": 1.713, "fax": "", "locationFeatures": null, "openingHours": {"mondayOpen": "10:00", "mondayClose": "20:00", "tuesdayOpen": "10:00", "tuesdayClose": "20:00", "wednesdayOpen": "10:00", "wednesdayClose": "20:00", "thursdayOpen": "10:00", "thursdayClose": "20:00", "fridayOpen": "10:00", "fridayClose": "21:00", "saturdayOpen": "10:00", "saturdayClose": "21:00", "sundayOpen": "10:00", "sundayClose": "20:00"}, "operationalInfo": {"storeManager": "ALISON CHASE", "areaRegion": "QLD5", "areaRegionMgr": "Randall Drysdale", "regionZone": "QLD", "regionZoneMgr": "Mat Davey"}, "openingHoursExceptions": [], "isOpen": true, "openingDate": null, "closingDate": null, "cncEnabled": true, "cncStore": true}, {"locationID": 34256341, "brandID": 3, "storeID": 6679, "latitude": -26.391714, "longitude": 153.039225, "storeName": "Royal Mail Hotel Barn", "address": "120 Poinciana Avenue", "suburb": "Tewantin", "postcode": "4565", "state": "QLD", "phone": "(07) 3726 9606", "distance": 3.195, "fax": "", "locationFeatures": null, "openingHours": {"mondayOpen": "09:00", "mondayClose": "21:00", "tuesdayOpen": "09:00", "tuesdayClose": "21:00", "wednesdayOpen": "09:00", "wednesdayClose": "21:00", "thursdayOpen": "09:00", "thursdayClose": "21:00", "fridayOpen": "09:00", "fridayClose": "21:00", "saturdayOpen": "09:00", "saturdayClose": "21:00", "sundayOpen": "09:00", "sundayClose": "20:00"}, "operationalInfo": {"storeManager": "PAUL TURNBULL", "areaRegion": "QLD5", "areaRegionMgr": "Randall Drysdale", "regionZone": "QLD", "regionZoneMgr": "Mat Davey"}, "openingHoursExceptions": [], "isOpen": true, "openingDate": null, "closingDate": null, "cncEnabled": true, "cncStore": true}, {"locationID": 34256343, "brandID": 3, "storeID": 6681, "latitude": -26.411471, "longitude": 153.034849, "storeName": "Noosa Bushlands", "address": "Corner Swanbourne Way And Beckmans Road", "suburb": "Noosaville", "postcode": "4566", "state": "QLD", "phone": "(07) 3726 9607", "distance": 3.318, "fax": "", "locationFeatures": null, "openingHours": {"mondayOpen": "10:00", "mondayClose": "20:00", "tuesdayOpen": "10:00", "tuesdayClose": "20:00", "wednesdayOpen": "10:00", "wednesdayClose": "20:00", "thursdayOpen": "10:00", "thursdayClose": "20:00", "fridayOpen": "10:00", "fridayClose": "21:00", "saturdayOpen": "10:00", "saturdayClose": "21:00", "sundayOpen": "10:00", "sundayClose": "19:00"}, "operationalInfo": {"storeManager": "CRAIG WARDEN", "areaRegion": "QLD5", "areaRegionMgr": "Randall Drysdale", "regionZone": "QLD", "regionZoneMgr": "Mat Davey"}, "openingHoursExceptions": [], "isOpen": true, "openingDate": null, "closingDate": null, "cncEnabled": true, "cncStore": true}]