[{"locationID": 34256233, "brandID": 3, "storeID": 6173, "latitude": -27.103775, "longitude": 152.950207, "storeName": "Morayfield (ll)", "address": "Morayfield Road", "suburb": "Morayfield", "postcode": "4506", "state": "QLD", "phone": "(07) 3726 9663", "distance": 0.639, "fax": "", "locationFeatures": null, "openingHours": {"mondayOpen": "09:00", "mondayClose": "18:00", "tuesdayOpen": "09:00", "tuesdayClose": "18:00", "wednesdayOpen": "09:00", "wednesdayClose": "18:00", "thursdayOpen": "09:00", "thursdayClose": "21:00", "fridayOpen": "09:00", "fridayClose": "19:00", "saturdayOpen": "09:00", "saturdayClose": "19:00", "sundayOpen": "09:00", "sundayClose": "18:00"}, "operationalInfo": {"storeManager": "FRANCES CRAWFORD", "areaRegion": "QLD6", "areaRegionMgr": "Lisa Hartnett", "regionZone": "QLD", "regionZoneMgr": "Mat Davey"}, "openingHoursExceptions": [], "isOpen": true, "openingDate": null, "closingDate": null, "cncEnabled": true, "cncStore": true}, {"locationID": 34256329, "brandID": 3, "storeID": 6647, "latitude": -27.085146, "longitude": 152.948887, "storeName": "Caboolture", "address": "60-78 King Street", "suburb": "Caboolture", "postcode": "4510", "state": "QLD", "phone": "(07) 3726 9658", "distance": 1.471, "fax": "", "locationFeatures": null, "openingHours": {"mondayOpen": "09:00", "mondayClose": "19:00", "tuesdayOpen": "09:00", "tuesdayClose": "19:00", "wednesdayOpen": "09:00", "wednesdayClose": "19:00", "thursdayOpen": "09:00", "thursdayClose": "20:00", "fridayOpen": "09:00", "fridayClose": "20:00", "saturdayOpen": "09:00", "saturdayClose": "19:00", "sundayOpen": "10:00", "sundayClose": "15:00"}, "operationalInfo": {"storeManager": "MARK HOLSTEIN", "areaRegion": "QLD6", "areaRegionMgr": "Lisa Hartnett", "regionZone": "QLD", "regionZoneMgr": "Mat Davey"}, "openingHoursExceptions": [], "isOpen": true, "openingDate": null, "closingDate": null, "cncEnabled": true, "cncStore": true}, {"locationID": 34256109, "brandID": 3, "storeID": 8621, "latitude": -27.114955, "longitude": 152.963556, "storeName": "Glenwood Drive  Cellars", "address": "Lot 62 Glenwood Drive", "suburb": "Morayfield", "postcode": "4506", "state": "QLD", "phone": "(07) 3726 9622", "distance": 2.116, "fax": "", "locationFeatures": null, "openingHours": {"mondayOpen": "10:00", "mondayClose": "19:00", "tuesdayOpen": "10:00", "tuesdayClose": "19:00", "wednesdayOpen": "10:00", "wednesdayClose": "20:00", "thursdayOpen": "10:00", "thursdayClose": "20:00", "fridayOpen": "10:00", "fridayClose": "21:00", "saturdayOpen": "10:00", "saturdayClose": "20:00", "sundayOpen": "10:00", "sundayClose": "19:00"}, "operationalInfo": {"storeManager": "KOSTA DOUEIHI", "areaRegion": "QLD6", "areaRegionMgr": "Lisa Hartnett", "regionZone": "QLD", "regionZoneMgr": "Mat Davey"}, "openingHoursExceptions": [], "isOpen": true, "openingDate": null, "closingDate": null, "cncEnabled": true, "cncStore": true}, {"locationID": 34256108, "brandID": 3, "storeID": 8618, "latitude": -27.085817, "longitude": 152.980059, "storeName": "Sundowner Hotel Barn", "address": "8 Aerodrome Road", "suburb": "Caboolture", "postcode": "4510", "state": "QLD", "phone": "(07) 3726 9656", "distance": 2.769, "fax": "", "locationFeatures": null, "openingHours": {"mondayOpen": "10:00", "mondayClose": "21:00", "tuesdayOpen": "10:00", "tuesdayClose": "21:00", "wednesdayOpen": "10:00", "wednesdayClose": "21:00", "thursdayOpen": "10:00", "thursdayClose": "21:00", "fridayOpen": "10:00", "fridayClose": "22:00", "saturdayOpen": "10:00", "saturdayClose": "22:00", "sundayOpen": "10:00", "sundayClose": "19:00"}, "operationalInfo": {"storeManager": "DEAN HINES", "areaRegion": "QLD6", "areaRegionMgr": "Lisa Hartnett", "regionZone": "QLD", "regionZoneMgr": "Mat Davey"}, "openingHoursExceptions": [], "isOpen": true, "openingDate": null, "closingDate": null, "cncEnabled": true, "cncStore": true}, {"locationID": 34256178, "brandID": 3, "storeID": 8629, "latitude": -27.136475, "longitude": 152.936198, "storeName": "Excelsior Park Cellars", "address": "Corner Oakey Flat Road And Nairn Road", "suburb": "Moorina", "postcode": "4506", "state": "QLD", "phone": "(07) 3726 9631", "distance": 4.465, "fax": "", "locationFeatures": null, "openingHours": {"mondayOpen": "10:00", "mondayClose": "19:00", "tuesdayOpen": "10:00", "tuesdayClose": "19:00", "wednesdayOpen": "10:00", "wednesdayClose": "19:00", "thursdayOpen": "10:00", "thursdayClose": "20:00", "fridayOpen": "10:00", "fridayClose": "20:00", "saturdayOpen": "10:00", "saturdayClose": "20:00", "sundayOpen": "10:00", "sundayClose": "19:00"}, "operationalInfo": {"storeManager": "CHANTELLE HOSKING", "areaRegion": "QLD6", "areaRegionMgr": "Lisa Hartnett", "regionZone": "QLD", "regionZoneMgr": "Mat Davey"}, "openingHoursExceptions": [], "isOpen": true, "openingDate": null, "closingDate": null, "cncEnabled": true, "cncStore": true}, {"locationID": 34256177, "brandID": 3, "storeID": 8628, "latitude": -27.138681, "longitude": 152.98201, "storeName": "Burpengary Village Cellars", "address": "Corner Buckley Road And Uhlman Road", "suburb": "Burpengary", "postcode": "4505", "state": "QLD", "phone": "(07) 3726 9678", "distance": 5.187, "fax": "", "locationFeatures": null, "openingHours": {"mondayOpen": "10:00", "mondayClose": "19:00", "tuesdayOpen": "10:00", "tuesdayClose": "19:00", "wednesdayOpen": "10:00", "wednesdayClose": "20:00", "thursdayOpen": "10:00", "thursdayClose": "20:00", "fridayOpen": "10:00", "fridayClose": "21:00", "saturdayOpen": "10:00", "saturdayClose": "20:00", "sundayOpen": "10:00", "sundayClose": "19:00"}, "operationalInfo": {"storeManager": "KIEREN HACKETT", "areaRegion": "QLD6", "areaRegionMgr": "Lisa Hartnett", "regionZone": "QLD", "regionZoneMgr": "Mat Davey"}, "openingHoursExceptions": [], "isOpen": true, "openingDate": null, "closingDate": null, "cncEnabled": true, "cncStore": true}, {"locationID": 34256234, "brandID": 3, "storeID": 6174, "latitude": -27.153418, "longitude": 152.975489, "storeName": "Burpengary", "address": "Corner Station Street And Progress Street", "suburb": "Burpengary", "postcode": "4505", "state": "QLD", "phone": "(07) 3734 0845", "distance": 6.465, "fax": "", "locationFeatures": null, "openingHours": {"mondayOpen": "09:00", "mondayClose": "20:00", "tuesdayOpen": "09:00", "tuesdayClose": "20:00", "wednesdayOpen": "09:00", "wednesdayClose": "20:00", "thursdayOpen": "09:00", "thursdayClose": "20:00", "fridayOpen": "09:00", "fridayClose": "21:00", "saturdayOpen": "09:00", "saturdayClose": "21:00", "sundayOpen": "09:00", "sundayClose": "19:00"}, "operationalInfo": {"storeManager": "LOUISE BOWDEN", "areaRegion": "QLD6", "areaRegionMgr": "Lisa Hartnett", "regionZone": "QLD", "regionZoneMgr": "Mat Davey"}, "openingHoursExceptions": [], "isOpen": true, "openingDate": null, "closingDate": null, "cncEnabled": true, "cncStore": true}, {"locationID": 34256159, "brandID": 3, "storeID": 6093, "latitude": -27.042438, "longitude": 152.973922, "storeName": "Caboolture Big Fish", "address": "459 Pumicestone Road", "suburb": "Caboolture", "postcode": "4510", "state": "QLD", "phone": "(07) 5316 4180", "distance": 6.477, "fax": "", "locationFeatures": null, "openingHours": {"mondayOpen": "09:00", "mondayClose": "20:00", "tuesdayOpen": "09:00", "tuesdayClose": "20:00", "wednesdayOpen": "09:00", "wednesdayClose": "20:00", "thursdayOpen": "09:00", "thursdayClose": "21:00", "fridayOpen": "09:00", "fridayClose": "21:00", "saturdayOpen": "09:00", "saturdayClose": "21:00", "sundayOpen": "09:00", "sundayClose": "18:00"}, "operationalInfo": {"storeManager": "ROBERT MCPHERSON", "areaRegion": "QLD6", "areaRegionMgr": "Lisa Hartnett", "regionZone": "QLD", "regionZoneMgr": "Mat Davey"}, "openingHoursExceptions": [], "isOpen": true, "openingDate": null, "closingDate": null, "cncEnabled": true, "cncStore": true}, {"locationID": 34256113, "brandID": 3, "storeID": 8626, "latitude": -27.160815, "longitude": 152.935417, "storeName": "Woodpecker Bottleshop", "address": "Corner Rowley Road And Facer Road", "suburb": "Burpengary", "postcode": "4505", "state": "QLD", "phone": "(07) 3726 9673", "distance": 7.106, "fax": "", "locationFeatures": null, "openingHours": {"mondayOpen": "10:00", "mondayClose": "19:00", "tuesdayOpen": "10:00", "tuesdayClose": "19:00", "wednesdayOpen": "10:00", "wednesdayClose": "19:00", "thursdayOpen": "10:00", "thursdayClose": "19:00", "fridayOpen": "10:00", "fridayClose": "20:00", "saturdayOpen": "10:00", "saturdayClose": "20:00", "sundayOpen": "10:00", "sundayClose": "18:00"}, "operationalInfo": {"storeManager": "KYLIE DIAMOND", "areaRegion": "QLD6", "areaRegionMgr": "Lisa Hartnett", "regionZone": "QLD", "regionZoneMgr": "Mat Davey"}, "openingHoursExceptions": [], "isOpen": true, "openingDate": null, "closingDate": null, "cncEnabled": true, "cncStore": true}, {"locationID": 34256157, "brandID": 3, "storeID": 6089, "latitude": -27.16263, "longitude": 152.95814, "storeName": "Burpengary Station", "address": "9-11 Burpengary Road", "suburb": "Burpengary", "postcode": "4505", "state": "QLD", "phone": "(07) 3734 0887", "distance": 7.188, "fax": "", "locationFeatures": null, "openingHours": {"mondayOpen": "09:00", "mondayClose": "20:00", "tuesdayOpen": "09:00", "tuesdayClose": "20:00", "wednesdayOpen": "09:00", "wednesdayClose": "20:00", "thursdayOpen": "09:00", "thursdayClose": "21:00", "fridayOpen": "09:00", "fridayClose": "21:00", "saturdayOpen": "09:00", "saturdayClose": "21:00", "sundayOpen": "09:00", "sundayClose": "19:00"}, "operationalInfo": {"storeManager": "JODY BRABON", "areaRegion": "QLD6", "areaRegionMgr": "Lisa Hartnett", "regionZone": "QLD", "regionZoneMgr": "Mat Davey"}, "openingHoursExceptions": [], "isOpen": true, "openingDate": null, "closingDate": null, "cncEnabled": true, "cncStore": true}, {"locationID": 34256111, "brandID": 3, "storeID": 8623, "latitude": -27.202585, "longitude": 152.958874, "storeName": "Narangba Liquor Barn", "address": "36 Main Street", "suburb": "Narangba", "postcode": "4504", "state": "QLD", "phone": "(07) 3726 9664", "distance": 11.627, "fax": "", "locationFeatures": null, "openingHours": {"mondayOpen": "10:00", "mondayClose": "20:00", "tuesdayOpen": "10:00", "tuesdayClose": "20:00", "wednesdayOpen": "10:00", "wednesdayClose": "20:00", "thursdayOpen": "10:00", "thursdayClose": "20:00", "fridayOpen": "10:00", "fridayClose": "21:00", "saturdayOpen": "10:00", "saturdayClose": "21:00", "sundayOpen": "10:00", "sundayClose": "20:00"}, "operationalInfo": {"storeManager": "RENEE SIMPSON", "areaRegion": "QLD6", "areaRegionMgr": "Lisa Hartnett", "regionZone": "QLD", "regionZoneMgr": "Mat Davey"}, "openingHoursExceptions": [], "isOpen": true, "openingDate": null, "closingDate": null, "cncEnabled": true, "cncStore": true}, {"locationID": 34256112, "brandID": 3, "storeID": 8624, "latitude": -27.244118, "longitude": 152.983183, "storeName": "Kallangur Village Cellars", "address": "Corner Ann Street And Marsden Road", "suburb": "Kallangur", "postcode": "4503", "state": "QLD", "phone": "(07) 3726 9665", "distance": 16.448, "fax": "", "locationFeatures": null, "openingHours": {"mondayOpen": "10:00", "mondayClose": "20:00", "tuesdayOpen": "10:00", "tuesdayClose": "20:00", "wednesdayOpen": "10:00", "wednesdayClose": "20:00", "thursdayOpen": "10:00", "thursdayClose": "20:00", "fridayOpen": "10:00", "fridayClose": "21:00", "saturdayOpen": "10:00", "saturdayClose": "21:00", "sundayOpen": "10:00", "sundayClose": "20:00"}, "operationalInfo": {"storeManager": "JANE MORGAN-HARRY", "areaRegion": "QLD7", "areaRegionMgr": "Kevin Gilbert", "regionZone": "QLD", "regionZoneMgr": "Mat Davey"}, "openingHoursExceptions": [], "isOpen": true, "openingDate": null, "closingDate": null, "cncEnabled": true, "cncStore": true}, {"locationID": 34256338, "brandID": 3, "storeID": 6674, "latitude": -27.057673, "longitude": 153.13853, "storeName": "Bribie Island Hotel Barn", "address": "29 Sylvan Beach Esplanade", "suburb": "Bribie Island", "postcode": "4507", "state": "QLD", "phone": "(07) 3726 9659", "distance": 16.545, "fax": "", "locationFeatures": null, "openingHours": {"mondayOpen": "10:00", "mondayClose": "20:00", "tuesdayOpen": "10:00", "tuesdayClose": "20:00", "wednesdayOpen": "10:00", "wednesdayClose": "20:00", "thursdayOpen": "10:00", "thursdayClose": "21:00", "fridayOpen": "10:00", "fridayClose": "22:00", "saturdayOpen": "10:00", "saturdayClose": "22:00", "sundayOpen": "10:00", "sundayClose": "20:00"}, "operationalInfo": {"storeManager": "PAUL BROWN", "areaRegion": "QLD6", "areaRegionMgr": "Lisa Hartnett", "regionZone": "QLD", "regionZoneMgr": "Mat Davey"}, "openingHoursExceptions": [], "isOpen": true, "openingDate": null, "closingDate": null, "cncEnabled": true, "cncStore": true}, {"locationID": 34256119, "brandID": 3, "storeID": 2833, "latitude": -27.23355, "longitude": 153.036288, "storeName": "Mango Hill", "address": "67 Capestone Blvd", "suburb": "Mango Hill", "postcode": "4509", "state": "QLD", "phone": "(07) 3734 0890", "distance": 16.688, "fax": "", "locationFeatures": null, "openingHours": {"mondayOpen": "09:00", "mondayClose": "21:00", "tuesdayOpen": "09:00", "tuesdayClose": "21:00", "wednesdayOpen": "09:00", "wednesdayClose": "21:00", "thursdayOpen": "09:00", "thursdayClose": "21:00", "fridayOpen": "09:00", "fridayClose": "21:00", "saturdayOpen": "09:00", "saturdayClose": "20:00", "sundayOpen": "09:00", "sundayClose": "18:00"}, "operationalInfo": {"storeManager": "ALICIA HACKETT", "areaRegion": "QLD7", "areaRegionMgr": "Kevin Gilbert", "regionZone": "QLD", "regionZoneMgr": "Mat Davey"}, "openingHoursExceptions": [], "isOpen": true, "openingDate": null, "closingDate": null, "cncEnabled": true, "cncStore": true}, {"locationID": 34256313, "brandID": 3, "storeID": 6489, "latitude": -27.24327, "longitude": 153.018817, "storeName": "North Lakes", "address": "Corner Anzac Ave And North Lakes Drive", "suburb": "North Lakes", "postcode": "4509", "state": "QLD", "phone": "(07) 3491 5780", "distance": 17.116, "fax": "", "locationFeatures": null, "openingHours": {"mondayOpen": "09:00", "mondayClose": "21:00", "tuesdayOpen": "09:00", "tuesdayClose": "21:00", "wednesdayOpen": "09:00", "wednesdayClose": "21:00", "thursdayOpen": "09:00", "thursdayClose": "21:00", "fridayOpen": "09:00", "fridayClose": "21:00", "saturdayOpen": "09:00", "saturdayClose": "21:00", "sundayOpen": "09:00", "sundayClose": "18:00"}, "operationalInfo": {"storeManager": "JESSICA SEAR-HALL", "areaRegion": "QLD7", "areaRegionMgr": "Kevin Gilbert", "regionZone": "QLD", "regionZoneMgr": "Mat Davey"}, "openingHoursExceptions": [], "isOpen": true, "openingDate": null, "closingDate": null, "cncEnabled": true, "cncStore": true}, {"locationID": 34256110, "brandID": 3, "storeID": 8622, "latitude": -27.250023, "longitude": 152.997044, "storeName": "Finnigans Chin Barn", "address": "Andrew Street", "suburb": "Kallangur", "postcode": "4503", "state": "QLD", "phone": "(07) 3726 9641", "distance": 17.321, "fax": "", "locationFeatures": null, "openingHours": {"mondayOpen": "10:00", "mondayClose": "20:00", "tuesdayOpen": "10:00", "tuesdayClose": "20:00", "wednesdayOpen": "10:00", "wednesdayClose": "20:00", "thursdayOpen": "10:00", "thursdayClose": "21:00", "fridayOpen": "10:00", "fridayClose": "21:00", "saturdayOpen": "10:00", "saturdayClose": "21:00", "sundayOpen": "10:00", "sundayClose": "20:00"}, "operationalInfo": {"storeManager": "MIKAELA EDMONDSTONE", "areaRegion": "QLD7", "areaRegionMgr": "Kevin Gilbert", "regionZone": "QLD", "regionZoneMgr": "Mat Davey"}, "openingHoursExceptions": [], "isOpen": true, "openingDate": null, "closingDate": null, "cncEnabled": true, "cncStore": true}, {"locationID": 34256339, "brandID": 3, "storeID": 6676, "latitude": -27.076538, "longitude": 153.157125, "storeName": "Welsby", "address": "91 Welsby Parade", "suburb": "Bongaree", "postcode": "4507", "state": "QLD", "phone": "(07) 3726 9620", "distance": 17.671, "fax": "", "locationFeatures": null, "openingHours": {"mondayOpen": "09:00", "mondayClose": "19:00", "tuesdayOpen": "09:00", "tuesdayClose": "19:00", "wednesdayOpen": "09:00", "wednesdayClose": "19:00", "thursdayOpen": "09:00", "thursdayClose": "19:00", "fridayOpen": "09:00", "fridayClose": "19:00", "saturdayOpen": "09:00", "saturdayClose": "19:00", "sundayOpen": "09:00", "sundayClose": "19:00"}, "operationalInfo": {"storeManager": "NAOMI HARNEY", "areaRegion": "QLD6", "areaRegionMgr": "Lisa Hartnett", "regionZone": "QLD", "regionZoneMgr": "Mat Davey"}, "openingHoursExceptions": [], "isOpen": true, "openingDate": null, "closingDate": null, "cncEnabled": true, "cncStore": true}, {"locationID": 34256340, "brandID": 3, "storeID": 6677, "latitude": -27.063892, "longitude": 153.157385, "storeName": "Bribie Central", "address": "Goodwin Drive", "suburb": "Bribie Island", "postcode": "4507", "state": "QLD", "phone": "(07) 3726 9660", "distance": 17.939, "fax": "", "locationFeatures": null, "openingHours": {"mondayOpen": "09:00", "mondayClose": "20:00", "tuesdayOpen": "09:00", "tuesdayClose": "20:00", "wednesdayOpen": "09:00", "wednesdayClose": "20:00", "thursdayOpen": "09:00", "thursdayClose": "21:00", "fridayOpen": "09:00", "fridayClose": "21:00", "saturdayOpen": "09:00", "saturdayClose": "19:00", "sundayOpen": "09:00", "sundayClose": "19:00"}, "operationalInfo": {"storeManager": "TRACEY MARTIN", "areaRegion": "QLD6", "areaRegionMgr": "Lisa Hartnett", "regionZone": "QLD", "regionZoneMgr": "Mat Davey"}, "openingHoursExceptions": [], "isOpen": true, "openingDate": null, "closingDate": null, "cncEnabled": true, "cncStore": true}, {"locationID": 34256320, "brandID": 3, "storeID": 6623, "latitude": -27.220183, "longitude": 153.098217, "storeName": "Redcliffe", "address": "Corner Ashmole Road And Klingner Road", "suburb": "Redcliffe", "postcode": "4020", "state": "QLD", "phone": "(07) 3480 3180", "distance": 18.437, "fax": "", "locationFeatures": null, "openingHours": {"mondayOpen": "09:00", "mondayClose": "21:00", "tuesdayOpen": "09:00", "tuesdayClose": "21:00", "wednesdayOpen": "09:00", "wednesdayClose": "21:00", "thursdayOpen": "09:00", "thursdayClose": "21:00", "fridayOpen": "09:00", "fridayClose": "21:00", "saturdayOpen": "09:00", "saturdayClose": "21:00", "sundayOpen": "09:00", "sundayClose": "19:00"}, "operationalInfo": {"storeManager": "CONRAD SOO CHOON", "areaRegion": "QLD7", "areaRegionMgr": "Kevin Gilbert", "regionZone": "QLD", "regionZoneMgr": "Mat Davey"}, "openingHoursExceptions": [], "isOpen": true, "openingDate": null, "closingDate": null, "cncEnabled": true, "cncStore": true}, {"locationID": 34256408, "brandID": 3, "storeID": 6537, "latitude": -27.22939, "longitude": 153.106177, "storeName": "Redcliffe (anzac Ave)", "address": "82-98 Anzac Ave", "suburb": "Redcliffe", "postcode": "4020", "state": "QLD", "phone": "(07) 3726 9666", "distance": 19.651, "fax": "", "locationFeatures": null, "openingHours": {"mondayOpen": "09:00", "mondayClose": "20:00", "tuesdayOpen": "09:00", "tuesdayClose": "20:00", "wednesdayOpen": "09:00", "wednesdayClose": "20:00", "thursdayOpen": "09:00", "thursdayClose": "21:00", "fridayOpen": "09:00", "fridayClose": "21:00", "saturdayOpen": "09:00", "saturdayClose": "21:00", "sundayOpen": "09:00", "sundayClose": "19:00"}, "operationalInfo": {"storeManager": "GRANT PRYOR", "areaRegion": "QLD7", "areaRegionMgr": "Kevin Gilbert", "regionZone": "QLD", "regionZoneMgr": "Mat Davey"}, "openingHoursExceptions": [], "isOpen": true, "openingDate": null, "closingDate": null, "cncEnabled": true, "cncStore": true}]