[{"locationID": 34256404, "brandID": 3, "storeID": 6533, "latitude": -23.38995, "longitude": 150.502945, "storeName": "Allenstown", "address": "42 Caroline Street", "suburb": "Allenstown", "postcode": "4700", "state": "QLD", "phone": "(07) 3734 0807", "distance": 0.742, "fax": "", "locationFeatures": null, "openingHours": {"mondayOpen": "09:00", "mondayClose": "19:00", "tuesdayOpen": "09:00", "tuesdayClose": "19:00", "wednesdayOpen": "09:00", "wednesdayClose": "19:00", "thursdayOpen": "09:00", "thursdayClose": "20:00", "fridayOpen": "09:00", "fridayClose": "20:00", "saturdayOpen": "09:00", "saturdayClose": "18:00", "sundayOpen": "09:00", "sundayClose": "18:00"}, "operationalInfo": {"storeManager": "STEPHANIE HOUSMAN", "areaRegion": "QLD5", "areaRegionMgr": "Randall Drysdale", "regionZone": "QLD", "regionZoneMgr": "Mat Davey"}, "openingHoursExceptions": [], "isOpen": true, "openingDate": null, "closingDate": null, "cncEnabled": true, "cncStore": true}, {"locationID": 34256402, "brandID": 3, "storeID": 6530, "latitude": -23.353623, "longitude": 150.523274, "storeName": "North Rockhampton", "address": "Corner Highway One And Yamba Road", "suburb": "North Rockhampton", "postcode": "4701", "state": "QLD", "phone": "(07) 3734 0806", "distance": 4.938, "fax": "", "locationFeatures": null, "openingHours": {"mondayOpen": "09:00", "mondayClose": "18:00", "tuesdayOpen": "09:00", "tuesdayClose": "18:00", "wednesdayOpen": "09:00", "wednesdayClose": "18:00", "thursdayOpen": "09:00", "thursdayClose": "20:00", "fridayOpen": "09:00", "fridayClose": "19:00", "saturdayOpen": "09:00", "saturdayClose": "18:00", "sundayOpen": "10:00", "sundayClose": "17:00"}, "operationalInfo": {"storeManager": "ETHAN FORSHAW", "areaRegion": "QLD5", "areaRegionMgr": "Randall Drysdale", "regionZone": "QLD", "regionZoneMgr": "Mat Davey"}, "openingHoursExceptions": [], "isOpen": true, "openingDate": null, "closingDate": null, "cncEnabled": true, "cncStore": true}, {"locationID": 34256105, "brandID": 3, "storeID": 8610, "latitude": -23.348806, "longitude": 150.537069, "storeName": "Berserker Tavern Drive", "address": "368 Dean Street", "suburb": "Rockhampton", "postcode": "4700", "state": "QLD", "phone": "(07) 3726 9640", "distance": 5.875, "fax": "", "locationFeatures": null, "openingHours": {"mondayOpen": "10:00", "mondayClose": "21:00", "tuesdayOpen": "10:00", "tuesdayClose": "21:00", "wednesdayOpen": "10:00", "wednesdayClose": "21:00", "thursdayOpen": "10:00", "thursdayClose": "21:00", "fridayOpen": "10:00", "fridayClose": "21:00", "saturdayOpen": "10:00", "saturdayClose": "21:00", "sundayOpen": "10:00", "sundayClose": "19:00"}, "operationalInfo": {"storeManager": "JEFFREY WEICK", "areaRegion": "QLD5", "areaRegionMgr": "Randall Drysdale", "regionZone": "QLD", "regionZoneMgr": "Mat Davey"}, "openingHoursExceptions": [], "isOpen": true, "openingDate": null, "closingDate": null, "cncEnabled": true, "cncStore": true}, {"locationID": 34256106, "brandID": 3, "storeID": 8614, "latitude": -23.334629, "longitude": 150.519383, "storeName": "Farm St Bottleshop", "address": "309-315 Farm Street", "suburb": "Norman Gardens", "postcode": "4701", "state": "QLD", "phone": "(07) 3734 0834", "distance": 6.924, "fax": "", "locationFeatures": null, "openingHours": {"mondayOpen": "10:00", "mondayClose": "19:00", "tuesdayOpen": "10:00", "tuesdayClose": "19:00", "wednesdayOpen": "10:00", "wednesdayClose": "19:00", "thursdayOpen": "10:00", "thursdayClose": "19:00", "fridayOpen": "10:00", "fridayClose": "20:00", "saturdayOpen": "10:00", "saturdayClose": "19:00", "sundayOpen": "10:00", "sundayClose": "18:00"}, "operationalInfo": {"storeManager": "JAMES GATT", "areaRegion": "QLD5", "areaRegionMgr": "Randall Drysdale", "regionZone": "QLD", "regionZoneMgr": "Mat Davey"}, "openingHoursExceptions": [], "isOpen": true, "openingDate": null, "closingDate": null, "cncEnabled": true, "cncStore": true}]