[{"locationID": 34256322, "brandID": 3, "storeID": 6627, "latitude": -23.847923, "longitude": 151.259436, "storeName": "Gladstone Valley", "address": "Goondoon Street", "suburb": "Gladstone", "postcode": "4680", "state": "QLD", "phone": "(07) 3734 0810", "distance": 1.241, "fax": "", "locationFeatures": null, "openingHours": {"mondayOpen": "09:00", "mondayClose": "20:00", "tuesdayOpen": "09:00", "tuesdayClose": "20:00", "wednesdayOpen": "09:00", "wednesdayClose": "20:00", "thursdayOpen": "09:00", "thursdayClose": "20:00", "fridayOpen": "09:00", "fridayClose": "20:00", "saturdayOpen": "09:00", "saturdayClose": "19:00", "sundayOpen": "09:00", "sundayClose": "18:00"}, "operationalInfo": {"storeManager": "TAYLOR MYERS", "areaRegion": "QLD5", "areaRegionMgr": "Randall Drysdale", "regionZone": "QLD", "regionZoneMgr": "Mat Davey"}, "openingHoursExceptions": [], "isOpen": true, "openingDate": null, "closingDate": null, "cncEnabled": true, "cncStore": true}, {"locationID": 34256107, "brandID": 3, "storeID": 8615, "latitude": -23.847266, "longitude": 151.262686, "storeName": "The Club Hotel Drive", "address": "1 Tank Street", "suburb": "Gladstone", "postcode": "4680", "state": "QLD", "phone": "(07) 3726 9648", "distance": 1.444, "fax": "", "locationFeatures": null, "openingHours": {"mondayOpen": "10:00", "mondayClose": "18:00", "tuesdayOpen": "10:00", "tuesdayClose": "18:00", "wednesdayOpen": "10:00", "wednesdayClose": "18:00", "thursdayOpen": "10:00", "thursdayClose": "18:00", "fridayOpen": "10:00", "fridayClose": "18:00", "saturdayOpen": "10:00", "saturdayClose": "18:00", "sundayOpen": "10:00", "sundayClose": "18:00"}, "operationalInfo": {"storeManager": "JESSICA SENIOR", "areaRegion": "QLD5", "areaRegionMgr": "Randall Drysdale", "regionZone": "QLD", "regionZoneMgr": "Mat Davey"}, "openingHoursExceptions": [], "isOpen": true, "openingDate": null, "closingDate": null, "cncEnabled": true, "cncStore": true}, {"locationID": 34256309, "brandID": 3, "storeID": 6479, "latitude": -23.86974, "longitude": 151.24005, "storeName": "Gladstone", "address": "Corner Dawson Hwy & Philip St", "suburb": "Gladstone", "postcode": "4680", "state": "QLD", "phone": "(07) 4838 8980", "distance": 1.719, "fax": "", "locationFeatures": null, "openingHours": {"mondayOpen": "09:00", "mondayClose": "20:00", "tuesdayOpen": "09:00", "tuesdayClose": "20:00", "wednesdayOpen": "09:00", "wednesdayClose": "20:00", "thursdayOpen": "09:00", "thursdayClose": "20:00", "fridayOpen": "09:00", "fridayClose": "21:00", "saturdayOpen": "09:00", "saturdayClose": "20:00", "sundayOpen": "09:00", "sundayClose": "18:00"}, "operationalInfo": {"storeManager": "CHERYL FRANKISH", "areaRegion": "QLD5", "areaRegionMgr": "Randall Drysdale", "regionZone": "QLD", "regionZoneMgr": "Mat Davey"}, "openingHoursExceptions": [], "isOpen": true, "openingDate": null, "closingDate": null, "cncEnabled": true, "cncStore": true}, {"locationID": 34256236, "brandID": 3, "storeID": 6196, "latitude": -23.875176, "longitude": 151.235519, "storeName": "Gladstone", "address": "3 Shaw Street", "suburb": "New Auckland", "postcode": "4680", "state": "QLD", "phone": "(07) 3734 0805", "distance": 2.432, "fax": "", "locationFeatures": null, "openingHours": {"mondayOpen": "10:00", "mondayClose": "20:00", "tuesdayOpen": "10:00", "tuesdayClose": "20:00", "wednesdayOpen": "10:00", "wednesdayClose": "20:00", "thursdayOpen": "10:00", "thursdayClose": "20:00", "fridayOpen": "10:00", "fridayClose": "20:00", "saturdayOpen": "10:00", "saturdayClose": "20:00", "sundayOpen": "10:00", "sundayClose": "19:00"}, "operationalInfo": {"storeManager": "AMANDA ENDERSBY", "areaRegion": "QLD5", "areaRegionMgr": "Randall Drysdale", "regionZone": "QLD", "regionZoneMgr": "Mat Davey"}, "openingHoursExceptions": [], "isOpen": true, "openingDate": null, "closingDate": null, "cncEnabled": true, "cncStore": true}]