[{"locationID": 34256328, "brandID": 3, "storeID": 6643, "latitude": -27.594603, "longitude": 151.948748, "storeName": "Toowoomba (kmart Plaza)", "address": "878 Ruthven Street", "suburb": "Toowoomba", "postcode": "4350", "state": "QLD", "phone": "(07) 3726 9661", "distance": 0.239, "fax": "", "locationFeatures": null, "openingHours": {"mondayOpen": "09:00", "mondayClose": "19:00", "tuesdayOpen": "09:00", "tuesdayClose": "19:00", "wednesdayOpen": "09:00", "wednesdayClose": "19:00", "thursdayOpen": "09:00", "thursdayClose": "21:00", "fridayOpen": "09:00", "fridayClose": "21:00", "saturdayOpen": "09:00", "saturdayClose": "18:00", "sundayOpen": "09:00", "sundayClose": "18:00"}, "operationalInfo": {"storeManager": "MEGAN SANDER", "areaRegion": "QLD8", "areaRegionMgr": "Konrad Kolmet (Secondment)", "regionZone": "QLD", "regionZoneMgr": "Mat Davey"}, "openingHoursExceptions": [], "isOpen": true, "openingDate": null, "closingDate": null, "cncEnabled": true, "cncStore": true}, {"locationID": 34256251, "brandID": 3, "storeID": 8683, "latitude": -27.565417, "longitude": 151.930723, "storeName": "Clifford Gardens", "address": "Corner Anzac Avenue And James Street", "suburb": "Toowoomba", "postcode": "4350", "state": "QLD", "phone": "(07) 3726 9662", "distance": 3.606, "fax": "", "locationFeatures": null, "openingHours": {"mondayOpen": "09:00", "mondayClose": "19:00", "tuesdayOpen": "09:00", "tuesdayClose": "19:00", "wednesdayOpen": "09:00", "wednesdayClose": "19:00", "thursdayOpen": "09:00", "thursdayClose": "21:00", "fridayOpen": "09:00", "fridayClose": "21:00", "saturdayOpen": "09:00", "saturdayClose": "17:00", "sundayOpen": "09:00", "sundayClose": "17:00"}, "operationalInfo": {"storeManager": "BARRY RICHARDS", "areaRegion": "QLD8", "areaRegionMgr": "Konrad Kolmet (Secondment)", "regionZone": "QLD", "regionZoneMgr": "Mat Davey"}, "openingHoursExceptions": [], "isOpen": true, "openingDate": null, "closingDate": null, "cncEnabled": true, "cncStore": true}, {"locationID": 34256079, "brandID": 3, "storeID": 6019, "latitude": -27.564955, "longitude": 151.914114, "storeName": "Glenvale", "address": "114-128 Glenvale Road", "suburb": "Glenvale", "postcode": "4350", "state": "QLD", "phone": "(07) 4529 5580", "distance": 4.507, "fax": "", "locationFeatures": null, "openingHours": {"mondayOpen": "09:00", "mondayClose": "21:00", "tuesdayOpen": "09:00", "tuesdayClose": "21:00", "wednesdayOpen": "09:00", "wednesdayClose": "21:00", "thursdayOpen": "09:00", "thursdayClose": "21:00", "fridayOpen": "09:00", "fridayClose": "21:00", "saturdayOpen": "09:00", "saturdayClose": "19:00", "sundayOpen": "09:00", "sundayClose": "18:00"}, "operationalInfo": {"storeManager": "DANIEL BORGSTAHL", "areaRegion": "QLD8", "areaRegionMgr": "Konrad Kolmet (Secondment)", "regionZone": "QLD", "regionZoneMgr": "Mat Davey"}, "openingHoursExceptions": [], "isOpen": true, "openingDate": null, "closingDate": null, "cncEnabled": true, "cncStore": true}]