[{"locationID": 34256165, "brandID": 3, "storeID": 6102, "latitude": -28.098185, "longitude": 153.441791, "storeName": "West Burleigh Cellar", "address": "Reedy Creek Road", "suburb": "West Burleigh", "postcode": "4219", "state": "QLD", "phone": "(07) 3734 0838", "distance": 0.171, "fax": "", "locationFeatures": null, "openingHours": {"mondayOpen": "09:00", "mondayClose": "20:00", "tuesdayOpen": "09:00", "tuesdayClose": "20:00", "wednesdayOpen": "09:00", "wednesdayClose": "20:00", "thursdayOpen": "09:00", "thursdayClose": "20:00", "fridayOpen": "09:00", "fridayClose": "20:00", "saturdayOpen": "09:00", "saturdayClose": "19:00", "sundayOpen": "09:00", "sundayClose": "18:00"}, "operationalInfo": {"storeManager": "JESSICA REYNOLDS", "areaRegion": "QNS4", "areaRegionMgr": "Graham Parsonson", "regionZone": "QNS", "regionZoneMgr": "Adam Hill"}, "openingHoursExceptions": [], "isOpen": true, "openingDate": null, "closingDate": null, "cncEnabled": true, "cncStore": true}, {"locationID": 34256351, "brandID": 3, "storeID": 6694, "latitude": -28.099391, "longitude": 153.425047, "storeName": "Treetops Plaza", "address": "3 Classic Way", "suburb": "Burleigh Waters", "postcode": "4220", "state": "QLD", "phone": "(07) 3726 9685", "distance": 1.419, "fax": "", "locationFeatures": null, "openingHours": {"mondayOpen": "09:00", "mondayClose": "20:00", "tuesdayOpen": "09:00", "tuesdayClose": "20:00", "wednesdayOpen": "09:00", "wednesdayClose": "20:00", "thursdayOpen": "09:00", "thursdayClose": "20:00", "fridayOpen": "09:00", "fridayClose": "20:00", "saturdayOpen": "09:00", "saturdayClose": "20:00", "sundayOpen": "09:00", "sundayClose": "18:00"}, "operationalInfo": {"storeManager": "PAUL HEATHCOTE", "areaRegion": "QNS4", "areaRegionMgr": "Graham Parsonson", "regionZone": "QNS", "regionZoneMgr": "Adam Hill"}, "openingHoursExceptions": [], "isOpen": true, "openingDate": null, "closingDate": null, "cncEnabled": true, "cncStore": true}, {"locationID": 34256164, "brandID": 3, "storeID": 6101, "latitude": -28.11117, "longitude": 153.440508, "storeName": "Burleigh Barn", "address": "Corner Tsipura Drive And Township Drive", "suburb": "West Burleigh", "postcode": "4219", "state": "QLD", "phone": "(07) 3726 9612", "distance": 1.611, "fax": "", "locationFeatures": null, "openingHours": {"mondayOpen": "10:00", "mondayClose": "20:00", "tuesdayOpen": "10:00", "tuesdayClose": "20:00", "wednesdayOpen": "10:00", "wednesdayClose": "20:00", "thursdayOpen": "10:00", "thursdayClose": "20:00", "fridayOpen": "10:00", "fridayClose": "21:00", "saturdayOpen": "10:00", "saturdayClose": "21:00", "sundayOpen": "10:00", "sundayClose": "19:00"}, "operationalInfo": {"storeManager": "MARK OCONNOR", "areaRegion": "QNS4", "areaRegionMgr": "Graham Parsonson", "regionZone": "QNS", "regionZoneMgr": "Adam Hill"}, "openingHoursExceptions": [], "isOpen": true, "openingDate": null, "closingDate": null, "cncEnabled": true, "cncStore": true}, {"locationID": 34256334, "brandID": 3, "storeID": 6653, "latitude": -28.074096, "longitude": 153.444112, "storeName": "Miami", "address": "Corner Gold Coast Avenue And Nundah Avenue", "suburb": "Miami", "postcode": "4220", "state": "QLD", "phone": "(07) 3734 0860", "distance": 2.525, "fax": "", "locationFeatures": null, "openingHours": {"mondayOpen": "09:00", "mondayClose": "21:00", "tuesdayOpen": "09:00", "tuesdayClose": "21:00", "wednesdayOpen": "09:00", "wednesdayClose": "21:00", "thursdayOpen": "09:00", "thursdayClose": "21:00", "fridayOpen": "09:00", "fridayClose": "22:00", "saturdayOpen": "09:00", "saturdayClose": "21:00", "sundayOpen": "09:00", "sundayClose": "19:00"}, "operationalInfo": {"storeManager": "TAYLOR ROGERS", "areaRegion": "QNS4", "areaRegionMgr": "Graham Parsonson", "regionZone": "QNS", "regionZoneMgr": "Adam Hill"}, "openingHoursExceptions": [], "isOpen": true, "openingDate": null, "closingDate": null, "cncEnabled": true, "cncStore": true}, {"locationID": 34256167, "brandID": 3, "storeID": 6104, "latitude": -28.122049, "longitude": 153.473052, "storeName": "Palm Beach", "address": "Pavillions On 5th Avenue", "suburb": "Palm Beach", "postcode": "4221", "state": "QLD", "phone": "(07) 5631 1180", "distance": 3.909, "fax": "", "locationFeatures": null, "openingHours": {"mondayOpen": "09:00", "mondayClose": "20:00", "tuesdayOpen": "09:00", "tuesdayClose": "20:00", "wednesdayOpen": "09:00", "wednesdayClose": "20:00", "thursdayOpen": "09:00", "thursdayClose": "21:00", "fridayOpen": "09:00", "fridayClose": "21:00", "saturdayOpen": "09:00", "saturdayClose": "21:00", "sundayOpen": "09:00", "sundayClose": "20:00"}, "operationalInfo": {"storeManager": "TARYN TONKIN", "areaRegion": "QNS4", "areaRegionMgr": "Graham Parsonson", "regionZone": "QNS", "regionZoneMgr": "Adam Hill"}, "openingHoursExceptions": [], "isOpen": true, "openingDate": null, "closingDate": null, "cncEnabled": true, "cncStore": true}, {"locationID": 34256163, "brandID": 3, "storeID": 6099, "latitude": -28.135445, "longitude": 153.470206, "storeName": "The Pines (elanora)", "address": "13-31 Guineas Creek Road", "suburb": "Elanora", "postcode": "4221", "state": "QLD", "phone": "(07) 5586 4480", "distance": 4.964, "fax": "", "locationFeatures": null, "openingHours": {"mondayOpen": "09:00", "mondayClose": "21:00", "tuesdayOpen": "09:00", "tuesdayClose": "21:00", "wednesdayOpen": "09:00", "wednesdayClose": "21:00", "thursdayOpen": "09:00", "thursdayClose": "21:00", "fridayOpen": "09:00", "fridayClose": "21:00", "saturdayOpen": "09:00", "saturdayClose": "21:00", "sundayOpen": "09:00", "sundayClose": "18:00"}, "operationalInfo": {"storeManager": "JAKE BISCHOFF", "areaRegion": "QNS4", "areaRegionMgr": "Graham Parsonson", "regionZone": "QNS", "regionZoneMgr": "Adam Hill"}, "openingHoursExceptions": [], "isOpen": true, "openingDate": null, "closingDate": null, "cncEnabled": true, "cncStore": true}, {"locationID": 34256305, "brandID": 3, "storeID": 6471, "latitude": -28.077092, "longitude": 153.385427, "storeName": "Robina", "address": "19 Robina Town Centre Drive", "suburb": "Robina", "postcode": "4226", "state": "QLD", "phone": "(07) 5501 6180", "distance": 5.241, "fax": "", "locationFeatures": null, "openingHours": {"mondayOpen": "09:00", "mondayClose": "21:00", "tuesdayOpen": "09:00", "tuesdayClose": "21:00", "wednesdayOpen": "09:00", "wednesdayClose": "21:00", "thursdayOpen": "09:00", "thursdayClose": "21:00", "fridayOpen": "09:00", "fridayClose": "21:00", "saturdayOpen": "09:00", "saturdayClose": "21:00", "sundayOpen": "09:00", "sundayClose": "18:00"}, "operationalInfo": {"storeManager": "ROBERT LESCHKE", "areaRegion": "QNS4", "areaRegionMgr": "Graham Parsonson", "regionZone": "QNS", "regionZoneMgr": "Adam Hill"}, "openingHoursExceptions": [], "isOpen": true, "openingDate": null, "closingDate": null, "cncEnabled": true, "cncStore": true}, {"locationID": 34256243, "brandID": 3, "storeID": 6242, "latitude": -28.045893, "longitude": 153.408209, "storeName": "Mermaid Waters", "address": "Corner Bermuda Street And Markeri Street", "suburb": "Mermaid Waters", "postcode": "4218", "state": "QLD", "phone": "(07) 3726 9680", "distance": 6.316, "fax": "", "locationFeatures": null, "openingHours": {"mondayOpen": "09:00", "mondayClose": "20:00", "tuesdayOpen": "09:00", "tuesdayClose": "20:00", "wednesdayOpen": "09:00", "wednesdayClose": "20:00", "thursdayOpen": "09:00", "thursdayClose": "21:00", "fridayOpen": "09:00", "fridayClose": "21:00", "saturdayOpen": "09:00", "saturdayClose": "20:00", "sundayOpen": "09:00", "sundayClose": "19:00"}, "operationalInfo": {"storeManager": "JAKE O'NEILL", "areaRegion": "QNS5", "areaRegionMgr": "Luke Pope (Secondment)", "regionZone": "QNS", "regionZoneMgr": "Adam Hill"}, "openingHoursExceptions": [], "isOpen": true, "openingDate": null, "closingDate": null, "cncEnabled": true, "cncStore": true}, {"locationID": 34256166, "brandID": 3, "storeID": 6103, "latitude": -28.039866, "longitude": 153.43378, "storeName": "Mermaid Beach Cellar", "address": "2547 Gold Coast Highway", "suburb": "Mermaid Beach", "postcode": "4218", "state": "QLD", "phone": "(07) 3734 0839", "distance": 6.352, "fax": "", "locationFeatures": null, "openingHours": {"mondayOpen": "10:00", "mondayClose": "20:00", "tuesdayOpen": "10:00", "tuesdayClose": "20:00", "wednesdayOpen": "10:00", "wednesdayClose": "20:00", "thursdayOpen": "10:00", "thursdayClose": "21:00", "fridayOpen": "10:00", "fridayClose": "22:00", "saturdayOpen": "10:00", "saturdayClose": "22:00", "sundayOpen": "10:00", "sundayClose": "20:00"}, "operationalInfo": {"storeManager": "LISA HEARN", "areaRegion": "QNS5", "areaRegionMgr": "Luke Pope (Secondment)", "regionZone": "QNS", "regionZoneMgr": "Adam Hill"}, "openingHoursExceptions": [], "isOpen": true, "openingDate": null, "closingDate": null, "cncEnabled": true, "cncStore": true}, {"locationID": 34256304, "brandID": 3, "storeID": 6469, "latitude": -28.036258, "longitude": 153.427416, "storeName": "Pacific Fair", "address": "Hooker Boulevard", "suburb": "Broadbeach", "postcode": "4218", "state": "QLD", "phone": "(07) 5504 3480", "distance": 6.825, "fax": "", "locationFeatures": null, "openingHours": {"mondayOpen": "09:00", "mondayClose": "22:00", "tuesdayOpen": "09:00", "tuesdayClose": "22:00", "wednesdayOpen": "09:00", "wednesdayClose": "22:00", "thursdayOpen": "09:00", "thursdayClose": "22:00", "fridayOpen": "09:00", "fridayClose": "22:00", "saturdayOpen": "09:00", "saturdayClose": "22:00", "sundayOpen": "09:00", "sundayClose": "20:00"}, "operationalInfo": {"storeManager": "JOANNE ELVERS", "areaRegion": "QNS5", "areaRegionMgr": "Luke Pope (Secondment)", "regionZone": "QNS", "regionZoneMgr": "Adam Hill"}, "openingHoursExceptions": [], "isOpen": true, "openingDate": null, "closingDate": null, "cncEnabled": true, "cncStore": true}, {"locationID": 34256252, "brandID": 3, "storeID": 8688, "latitude": -27.999577, "longitude": 153.427829, "storeName": "Surfers Paradise Express", "address": "3240 Gold Coast Highway", "suburb": "Surfers Paradise", "postcode": "4217", "state": "QLD", "phone": "(07) 3734 0837", "distance": 10.861, "fax": "", "locationFeatures": null, "openingHours": {"mondayOpen": "10:00", "mondayClose": "22:00", "tuesdayOpen": "10:00", "tuesdayClose": "22:00", "wednesdayOpen": "10:00", "wednesdayClose": "22:00", "thursdayOpen": "10:00", "thursdayClose": "22:00", "fridayOpen": "10:00", "fridayClose": "22:00", "saturdayOpen": "10:00", "saturdayClose": "22:00", "sundayOpen": "10:00", "sundayClose": "21:00"}, "operationalInfo": {"storeManager": "", "areaRegion": "QNS5", "areaRegionMgr": "Luke Pope (Secondment)", "regionZone": "QNS", "regionZoneMgr": "Adam Hill"}, "openingHoursExceptions": [], "isOpen": true, "openingDate": null, "closingDate": null, "cncEnabled": true, "cncStore": true}, {"locationID": 34256301, "brandID": 3, "storeID": 6461, "latitude": -27.99962, "longitude": 153.37724, "storeName": "Benowa Village", "address": "Corner Ross Street And Ashmore Road", "suburb": "Ashmore", "postcode": "4217", "state": "QLD", "phone": "(07) 5510 7580", "distance": 12.1, "fax": "", "locationFeatures": null, "openingHours": {"mondayOpen": "09:00", "mondayClose": "20:00", "tuesdayOpen": "09:00", "tuesdayClose": "20:00", "wednesdayOpen": "09:00", "wednesdayClose": "20:00", "thursdayOpen": "09:00", "thursdayClose": "21:00", "fridayOpen": "09:00", "fridayClose": "21:00", "saturdayOpen": "09:00", "saturdayClose": "21:00", "sundayOpen": "09:00", "sundayClose": "19:00"}, "operationalInfo": {"storeManager": "BRADLEY OWEN", "areaRegion": "QNS5", "areaRegionMgr": "Luke Pope (Secondment)", "regionZone": "QNS", "regionZoneMgr": "Adam Hill"}, "openingHoursExceptions": [], "isOpen": true, "openingDate": null, "closingDate": null, "cncEnabled": true, "cncStore": true}, {"locationID": 34256169, "brandID": 3, "storeID": 6117, "latitude": -28.172356, "longitude": 153.543823, "storeName": "Tweed Heads", "address": "Corner Francis Street And Wharf Street", "suburb": "Tweed Heads", "postcode": "2485", "state": "NSW", "phone": "(07) 3726 9679", "distance": 12.135, "fax": "", "locationFeatures": null, "openingHours": {"mondayOpen": "09:00", "mondayClose": "20:00", "tuesdayOpen": "09:00", "tuesdayClose": "20:00", "wednesdayOpen": "09:00", "wednesdayClose": "20:00", "thursdayOpen": "09:00", "thursdayClose": "20:00", "fridayOpen": "09:00", "fridayClose": "21:00", "saturdayOpen": "09:00", "saturdayClose": "21:00", "sundayOpen": "10:00", "sundayClose": "19:00"}, "operationalInfo": {"storeManager": "NATALIE STEWART", "areaRegion": "QNS4", "areaRegionMgr": "Graham Parsonson", "regionZone": "QNS", "regionZoneMgr": "Adam Hill"}, "openingHoursExceptions": [], "isOpen": true, "openingDate": null, "closingDate": null, "cncEnabled": true, "cncStore": true}, {"locationID": 34256075, "brandID": 3, "storeID": 6007, "latitude": -27.985491, "longitude": 153.410135, "storeName": "Southport Park", "address": "Cnr Ferry And Benowa Road", "suburb": "Southport", "postcode": "4215", "state": "QLD", "phone": "(07) 5635 5280", "distance": 12.649, "fax": "", "locationFeatures": null, "openingHours": {"mondayOpen": "09:00", "mondayClose": "20:00", "tuesdayOpen": "09:00", "tuesdayClose": "20:00", "wednesdayOpen": "09:00", "wednesdayClose": "20:00", "thursdayOpen": "09:00", "thursdayClose": "21:00", "fridayOpen": "09:00", "fridayClose": "21:00", "saturdayOpen": "09:00", "saturdayClose": "21:00", "sundayOpen": "10:00", "sundayClose": "18:00"}, "operationalInfo": {"storeManager": "DANA LALICH", "areaRegion": "QNS5", "areaRegionMgr": "Luke Pope (Secondment)", "regionZone": "QNS", "regionZoneMgr": "Adam Hill"}, "openingHoursExceptions": [], "isOpen": true, "openingDate": null, "closingDate": null, "cncEnabled": true, "cncStore": true}, {"locationID": 34256405, "brandID": 3, "storeID": 6534, "latitude": -27.979797, "longitude": 153.425049, "storeName": "Main Beach", "address": "26-30 Tedder Avenue", "suburb": "Main Beach", "postcode": "4217", "state": "QLD", "phone": "(07) 3726 9688", "distance": 13.074, "fax": "", "locationFeatures": null, "openingHours": {"mondayOpen": "10:00", "mondayClose": "20:00", "tuesdayOpen": "10:00", "tuesdayClose": "20:00", "wednesdayOpen": "10:00", "wednesdayClose": "20:00", "thursdayOpen": "10:00", "thursdayClose": "20:00", "fridayOpen": "10:00", "fridayClose": "21:00", "saturdayOpen": "10:00", "saturdayClose": "21:00", "sundayOpen": "10:00", "sundayClose": "20:00"}, "operationalInfo": {"storeManager": "PHILIP UNDERWOOD", "areaRegion": "QNS5", "areaRegionMgr": "Luke Pope (Secondment)", "regionZone": "QNS", "regionZoneMgr": "Adam Hill"}, "openingHoursExceptions": [], "isOpen": true, "openingDate": null, "closingDate": null, "cncEnabled": true, "cncStore": true}, {"locationID": 34256420, "brandID": 3, "storeID": 6599, "latitude": -27.998022, "longitude": 153.338097, "storeName": "Nerang", "address": "57 Station Street", "suburb": "Nerang", "postcode": "4211", "state": "QLD", "phone": "(07) 3734 0802", "distance": 14.068, "fax": "", "locationFeatures": null, "openingHours": {"mondayOpen": "09:00", "mondayClose": "20:00", "tuesdayOpen": "09:00", "tuesdayClose": "20:00", "wednesdayOpen": "09:00", "wednesdayClose": "20:00", "thursdayOpen": "09:00", "thursdayClose": "20:00", "fridayOpen": "09:00", "fridayClose": "21:00", "saturdayOpen": "09:00", "saturdayClose": "19:00", "sundayOpen": "09:00", "sundayClose": "18:00"}, "operationalInfo": {"storeManager": "VICTORIA CAMERON", "areaRegion": "QNS5", "areaRegionMgr": "Luke Pope (Secondment)", "regionZone": "QNS", "regionZoneMgr": "Adam Hill"}, "openingHoursExceptions": [], "isOpen": true, "openingDate": null, "closingDate": null, "cncEnabled": true, "cncStore": true}, {"locationID": 34256421, "brandID": 3, "storeID": 6608, "latitude": -27.977818, "longitude": 153.380717, "storeName": "Ashmore", "address": "Corner Nerang-Southport Road And Currumburra Road", "suburb": "Ashmore", "postcode": "4214", "state": "QLD", "phone": "(07) 3726 9689", "distance": 14.194, "fax": "", "locationFeatures": null, "openingHours": {"mondayOpen": "09:00", "mondayClose": "19:00", "tuesdayOpen": "09:00", "tuesdayClose": "19:00", "wednesdayOpen": "09:00", "wednesdayClose": "19:00", "thursdayOpen": "09:00", "thursdayClose": "19:00", "fridayOpen": "09:00", "fridayClose": "21:00", "saturdayOpen": "09:00", "saturdayClose": "18:00", "sundayOpen": "10:00", "sundayClose": "18:00"}, "operationalInfo": {"storeManager": "", "areaRegion": "QNS5", "areaRegionMgr": "Luke Pope (Secondment)", "regionZone": "QNS", "regionZoneMgr": "Adam Hill"}, "openingHoursExceptions": [], "isOpen": true, "openingDate": null, "closingDate": null, "cncEnabled": true, "cncStore": true}, {"locationID": 34256162, "brandID": 3, "storeID": 6098, "latitude": -27.968892, "longitude": 153.415689, "storeName": "Australia Fair", "address": "42 Marine Parade", "suburb": "Southport", "postcode": "4215", "state": "QLD", "phone": "(07) 5668 4980", "distance": 14.38, "fax": "", "locationFeatures": null, "openingHours": {"mondayOpen": "09:00", "mondayClose": "19:00", "tuesdayOpen": "09:00", "tuesdayClose": "19:00", "wednesdayOpen": "09:00", "wednesdayClose": "19:00", "thursdayOpen": "09:00", "thursdayClose": "20:00", "fridayOpen": "09:00", "fridayClose": "21:00", "saturdayOpen": "09:00", "saturdayClose": "21:00", "sundayOpen": "09:00", "sundayClose": "19:00"}, "operationalInfo": {"storeManager": "BLAKE CHAPMAN", "areaRegion": "QNS5", "areaRegionMgr": "Luke Pope (Secondment)", "regionZone": "QNS", "regionZoneMgr": "Adam Hill"}, "openingHoursExceptions": [], "isOpen": true, "openingDate": null, "closingDate": null, "cncEnabled": true, "cncStore": true}, {"locationID": 34256161, "brandID": 3, "storeID": 6096, "latitude": -28.200117, "longitude": 153.54662, "storeName": "Tweed City", "address": "54 Minjungbal Drive", "suburb": "Tweed Heads South", "postcode": "2486", "state": "NSW", "phone": "(07) 5506 4080", "distance": 14.593, "fax": "", "locationFeatures": null, "openingHours": {"mondayOpen": "09:00", "mondayClose": "20:00", "tuesdayOpen": "09:00", "tuesdayClose": "20:00", "wednesdayOpen": "09:00", "wednesdayClose": "20:00", "thursdayOpen": "09:00", "thursdayClose": "21:00", "fridayOpen": "09:00", "fridayClose": "20:00", "saturdayOpen": "09:00", "saturdayClose": "19:00", "sundayOpen": "10:00", "sundayClose": "18:00"}, "operationalInfo": {"storeManager": "HOLLY MORAN", "areaRegion": "QNS4", "areaRegionMgr": "Graham Parsonson", "regionZone": "QNS", "regionZoneMgr": "Adam Hill"}, "openingHoursExceptions": [], "isOpen": true, "openingDate": null, "closingDate": null, "cncEnabled": true, "cncStore": true}, {"locationID": 34256170, "brandID": 3, "storeID": 6119, "latitude": -28.214494, "longitude": 153.541909, "storeName": "Banora Point", "address": "59-71 Darlington Drive", "suburb": "Banora Point", "postcode": "2486", "state": "NSW", "phone": "(07) 3726 9686", "distance": 15.66, "fax": "", "locationFeatures": null, "openingHours": {"mondayOpen": "09:00", "mondayClose": "21:00", "tuesdayOpen": "09:00", "tuesdayClose": "21:00", "wednesdayOpen": "09:00", "wednesdayClose": "21:00", "thursdayOpen": "09:00", "thursdayClose": "21:00", "fridayOpen": "09:00", "fridayClose": "21:00", "saturdayOpen": "09:00", "saturdayClose": "21:00", "sundayOpen": "10:00", "sundayClose": "21:00"}, "operationalInfo": {"storeManager": "DARRYN TOMKINS", "areaRegion": "QNS4", "areaRegionMgr": "Graham Parsonson", "regionZone": "QNS", "regionZoneMgr": "Adam Hill"}, "openingHoursExceptions": [], "isOpen": true, "openingDate": null, "closingDate": null, "cncEnabled": true, "cncStore": true}, {"locationID": 34256238, "brandID": 3, "storeID": 6204, "latitude": -27.951385, "longitude": 153.408099, "storeName": "Labrador", "address": "36 Frank Street", "suburb": "Labrador", "postcode": "4215", "state": "QLD", "phone": "(07) 3734 0847", "distance": 16.406, "fax": "", "locationFeatures": null, "openingHours": {"mondayOpen": "09:00", "mondayClose": "20:00", "tuesdayOpen": "09:00", "tuesdayClose": "20:00", "wednesdayOpen": "09:00", "wednesdayClose": "20:00", "thursdayOpen": "09:00", "thursdayClose": "20:00", "fridayOpen": "09:00", "fridayClose": "21:00", "saturdayOpen": "09:00", "saturdayClose": "21:00", "sundayOpen": "09:00", "sundayClose": "20:00"}, "operationalInfo": {"storeManager": "", "areaRegion": "QNS5", "areaRegionMgr": "Luke Pope (Secondment)", "regionZone": "QNS", "regionZoneMgr": "Adam Hill"}, "openingHoursExceptions": [], "isOpen": true, "openingDate": null, "closingDate": null, "cncEnabled": true, "cncStore": true}]