[{"locationID": 34256422, "brandID": 3, "storeID": 6609, "latitude": -27.571469, "longitude": 153.063142, "storeName": "Sunnybank", "address": "358 Mains And Mccullough Streets", "suburb": "Sunnybank", "postcode": "4109", "state": "QLD", "phone": "(07) 3726 9684", "distance": 3.188, "fax": "", "locationFeatures": null, "openingHours": {"mondayOpen": "09:00", "mondayClose": "20:00", "tuesdayOpen": "09:00", "tuesdayClose": "20:00", "wednesdayOpen": "09:00", "wednesdayClose": "20:00", "thursdayOpen": "09:00", "thursdayClose": "21:00", "fridayOpen": "09:00", "fridayClose": "21:00", "saturdayOpen": "09:00", "saturdayClose": "20:00", "sundayOpen": "09:00", "sundayClose": "18:00"}, "operationalInfo": {"storeManager": "DANIEL BROWNE", "areaRegion": "QNS7", "areaRegionMgr": "Ben Harris", "regionZone": "QNS", "regionZoneMgr": "Adam Hill"}, "openingHoursExceptions": [], "isOpen": true, "openingDate": null, "closingDate": null, "cncEnabled": true, "cncStore": true}, {"locationID": 34256015, "brandID": 3, "storeID": 8560, "latitude": -27.578058, "longitude": 152.973603, "storeName": "Inala Superstore", "address": "Corner Freeman Road And Rudd Street", "suburb": "Inala", "postcode": "4077", "state": "QLD", "phone": "(07) 3078 8600", "distance": 4.485, "fax": "", "locationFeatures": null, "openingHours": {"mondayOpen": "10:00", "mondayClose": "19:00", "tuesdayOpen": "10:00", "tuesdayClose": "19:00", "wednesdayOpen": "10:00", "wednesdayClose": "19:00", "thursdayOpen": "10:00", "thursdayClose": "20:00", "fridayOpen": "10:00", "fridayClose": "21:00", "saturdayOpen": "10:00", "saturdayClose": "21:00", "sundayOpen": "10:00", "sundayClose": "18:00"}, "operationalInfo": {"storeManager": "HARDEEP GILL", "areaRegion": "QLD8", "areaRegionMgr": "Konrad Kolmet (Secondment)", "regionZone": "QLD", "regionZoneMgr": "Mat Davey"}, "openingHoursExceptions": [], "isOpen": true, "openingDate": null, "closingDate": null, "cncEnabled": true, "cncStore": true}, {"locationID": 34256319, "brandID": 3, "storeID": 6622, "latitude": -27.611154, "longitude": 153.055622, "storeName": "Sunnybank Hills", "address": "Corner Calam Road And Compton Road", "suburb": "Sunnybank Hills", "postcode": "4109", "state": "QLD", "phone": "(07) 3712 5680", "distance": 4.778, "fax": "", "locationFeatures": null, "openingHours": {"mondayOpen": "09:00", "mondayClose": "20:00", "tuesdayOpen": "09:00", "tuesdayClose": "20:00", "wednesdayOpen": "09:00", "wednesdayClose": "20:00", "thursdayOpen": "09:00", "thursdayClose": "21:00", "fridayOpen": "09:00", "fridayClose": "21:00", "saturdayOpen": "09:00", "saturdayClose": "20:00", "sundayOpen": "09:00", "sundayClose": "18:00"}, "operationalInfo": {"storeManager": "MELODY VOLLER", "areaRegion": "QNS7", "areaRegionMgr": "Ben Harris", "regionZone": "QNS", "regionZoneMgr": "Adam Hill"}, "openingHoursExceptions": [], "isOpen": true, "openingDate": null, "closingDate": null, "cncEnabled": true, "cncStore": true}, {"locationID": 34256410, "brandID": 3, "storeID": 6540, "latitude": -27.562689, "longitude": 153.082112, "storeName": "Garden City", "address": "2049 Logan Road", "suburb": "Upper Mount Gravatt", "postcode": "4122", "state": "QLD", "phone": "(07) 3734 0854", "distance": 4.968, "fax": "", "locationFeatures": null, "openingHours": {"mondayOpen": "09:00", "mondayClose": "20:00", "tuesdayOpen": "09:00", "tuesdayClose": "20:00", "wednesdayOpen": "09:00", "wednesdayClose": "20:00", "thursdayOpen": "09:00", "thursdayClose": "21:00", "fridayOpen": "09:00", "fridayClose": "20:00", "saturdayOpen": "09:00", "saturdayClose": "20:00", "sundayOpen": "09:00", "sundayClose": "18:00"}, "operationalInfo": {"storeManager": "JOHN HENWOOD", "areaRegion": "QNS7", "areaRegionMgr": "Ben Harris", "regionZone": "QNS", "regionZoneMgr": "Adam Hill"}, "openingHoursExceptions": [], "isOpen": true, "openingDate": null, "closingDate": null, "cncEnabled": true, "cncStore": true}, {"locationID": 34256335, "brandID": 3, "storeID": 6663, "latitude": -27.532431, "longitude": 152.981618, "storeName": "Sherwood", "address": "672 Sherwood Road", "suburb": "Sherwood", "postcode": "4075", "state": "QLD", "phone": "(07) 3734 0861", "distance": 6.034, "fax": "", "locationFeatures": null, "openingHours": {"mondayOpen": "10:00", "mondayClose": "20:00", "tuesdayOpen": "10:00", "tuesdayClose": "20:00", "wednesdayOpen": "10:00", "wednesdayClose": "20:00", "thursdayOpen": "10:00", "thursdayClose": "20:00", "fridayOpen": "10:00", "fridayClose": "21:00", "saturdayOpen": "10:00", "saturdayClose": "21:00", "sundayOpen": "10:00", "sundayClose": "19:00"}, "operationalInfo": {"storeManager": "JAMES HISCOCK", "areaRegion": "QLD1CB", "areaRegionMgr": "Matthue Woods", "regionZone": "QLD", "regionZoneMgr": "Mat Davey"}, "openingHoursExceptions": [], "isOpen": true, "openingDate": null, "closingDate": null, "cncEnabled": true, "cncStore": true}, {"locationID": 34256312, "brandID": 3, "storeID": 6486, "latitude": -27.540449, "longitude": 153.082799, "storeName": "Mt Gravatt Plaza", "address": "55 Creek Road", "suburb": "Mount Gravatt", "postcode": "4122", "state": "QLD", "phone": "(07) 3452 6480", "distance": 6.161, "fax": "", "locationFeatures": null, "openingHours": {"mondayOpen": "09:00", "mondayClose": "20:00", "tuesdayOpen": "09:00", "tuesdayClose": "20:00", "wednesdayOpen": "09:00", "wednesdayClose": "20:00", "thursdayOpen": "09:00", "thursdayClose": "20:00", "fridayOpen": "09:00", "fridayClose": "20:00", "saturdayOpen": "09:00", "saturdayClose": "20:00", "sundayOpen": "09:00", "sundayClose": "18:00"}, "operationalInfo": {"storeManager": "HAYDEN DONOHUE", "areaRegion": "QNS7", "areaRegionMgr": "Ben Harris", "regionZone": "QNS", "regionZoneMgr": "Adam Hill"}, "openingHoursExceptions": [], "isOpen": true, "openingDate": null, "closingDate": null, "cncEnabled": true, "cncStore": true}, {"locationID": 34256089, "brandID": 3, "storeID": 6080, "latitude": -27.559021, "longitude": 152.950912, "storeName": "Darra", "address": "Shop 9a, 166 Monier Road", "suburb": "Darra", "postcode": "4076", "state": "QLD", "phone": "(07) 3726 9611", "distance": 6.637, "fax": "", "locationFeatures": null, "openingHours": {"mondayOpen": "09:00", "mondayClose": "21:00", "tuesdayOpen": "09:00", "tuesdayClose": "21:00", "wednesdayOpen": "09:00", "wednesdayClose": "21:00", "thursdayOpen": "09:00", "thursdayClose": "21:00", "fridayOpen": "09:00", "fridayClose": "21:00", "saturdayOpen": "09:00", "saturdayClose": "21:00", "sundayOpen": "09:00", "sundayClose": "18:00"}, "operationalInfo": {"storeManager": "JOHN NORRIS", "areaRegion": "QNS6", "areaRegionMgr": "Ian Haines", "regionZone": "QNS", "regionZoneMgr": "Adam Hill"}, "openingHoursExceptions": [], "isOpen": true, "openingDate": null, "closingDate": null, "cncEnabled": true, "cncStore": true}, {"locationID": 34255940, "brandID": 3, "storeID": 8336, "latitude": -27.509428, "longitude": 153.024171, "storeName": "Fairfield (fairfield Road)", "address": "190 Fairfield Road", "suburb": "Fairfield", "postcode": "4103", "state": "QLD", "phone": "(07) 3734 0867", "distance": 7.258, "fax": "", "locationFeatures": null, "openingHours": {"mondayOpen": "10:00", "mondayClose": "20:00", "tuesdayOpen": "10:00", "tuesdayClose": "20:00", "wednesdayOpen": "10:00", "wednesdayClose": "20:00", "thursdayOpen": "10:00", "thursdayClose": "20:00", "fridayOpen": "10:00", "fridayClose": "21:00", "saturdayOpen": "10:00", "saturdayClose": "21:00", "sundayOpen": "10:00", "sundayClose": "19:00"}, "operationalInfo": {"storeManager": "JAMIE ARTUS", "areaRegion": "QLD1CB", "areaRegionMgr": "Matthue Woods", "regionZone": "QLD", "regionZoneMgr": "Mat Davey"}, "openingHoursExceptions": [], "isOpen": true, "openingDate": null, "closingDate": null, "cncEnabled": true, "cncStore": true}, {"locationID": 34256412, "brandID": 3, "storeID": 6542, "latitude": -27.624931, "longitude": 152.967925, "storeName": "Forest Lake", "address": "235 Forest Lake Boulevard", "suburb": "Forest Lake", "postcode": "4078", "state": "QLD", "phone": "(07) 3714 2580", "distance": 7.468, "fax": "", "locationFeatures": null, "openingHours": {"mondayOpen": "09:00", "mondayClose": "20:00", "tuesdayOpen": "09:00", "tuesdayClose": "20:00", "wednesdayOpen": "09:00", "wednesdayClose": "20:00", "thursdayOpen": "09:00", "thursdayClose": "21:00", "fridayOpen": "09:00", "fridayClose": "21:00", "saturdayOpen": "09:00", "saturdayClose": "20:00", "sundayOpen": "09:00", "sundayClose": "18:00"}, "operationalInfo": {"storeManager": "BRENDAN DIETRICH", "areaRegion": "QLD8", "areaRegionMgr": "Konrad Kolmet (Secondment)", "regionZone": "QLD", "regionZoneMgr": "Mat Davey"}, "openingHoursExceptions": [], "isOpen": true, "openingDate": null, "closingDate": null, "cncEnabled": true, "cncStore": true}, {"locationID": 34256158, "brandID": 3, "storeID": 6091, "latitude": -27.57746, "longitude": 153.113921, "storeName": "Rochedale", "address": "329 Gardner Road", "suburb": "Rochedale", "postcode": "4123", "state": "QLD", "phone": "(07) 3182 9480", "distance": 7.506, "fax": "", "locationFeatures": null, "openingHours": {"mondayOpen": "09:00", "mondayClose": "20:00", "tuesdayOpen": "09:00", "tuesdayClose": "20:00", "wednesdayOpen": "09:00", "wednesdayClose": "20:00", "thursdayOpen": "09:00", "thursdayClose": "21:00", "fridayOpen": "09:00", "fridayClose": "21:00", "saturdayOpen": "09:00", "saturdayClose": "21:00", "sundayOpen": "09:00", "sundayClose": "18:00"}, "operationalInfo": {"storeManager": "SAMANTHA DILLON", "areaRegion": "QNS7", "areaRegionMgr": "Ben Harris", "regionZone": "QNS", "regionZoneMgr": "Adam Hill"}, "openingHoursExceptions": [], "isOpen": true, "openingDate": null, "closingDate": null, "cncEnabled": true, "cncStore": true}, {"locationID": 34256185, "brandID": 3, "storeID": 8669, "latitude": -27.549647, "longitude": 152.93894, "storeName": "Mt Ommaney Centre", "address": "171 Dandenong Road", "suburb": "Mount Ommaney", "postcode": "4074", "state": "QLD", "phone": "(07) 3725 7280", "distance": 7.931, "fax": "", "locationFeatures": null, "openingHours": {"mondayOpen": "09:00", "mondayClose": "20:00", "tuesdayOpen": "09:00", "tuesdayClose": "20:00", "wednesdayOpen": "09:00", "wednesdayClose": "20:00", "thursdayOpen": "09:00", "thursdayClose": "21:00", "fridayOpen": "09:00", "fridayClose": "21:00", "saturdayOpen": "09:00", "saturdayClose": "19:00", "sundayOpen": "09:00", "sundayClose": "18:00"}, "operationalInfo": {"storeManager": "SHELBY COOK", "areaRegion": "QLD8", "areaRegionMgr": "Konrad Kolmet (Secondment)", "regionZone": "QLD", "regionZoneMgr": "Mat Davey"}, "openingHoursExceptions": [], "isOpen": true, "openingDate": null, "closingDate": null, "cncEnabled": true, "cncStore": true}, {"locationID": 34256325, "brandID": 3, "storeID": 6638, "latitude": -27.60752, "longitude": 153.110493, "storeName": "Kuraby", "address": "21 Kingston Road", "suburb": "Underwood", "postcode": "4119", "state": "QLD", "phone": "(07) 3726 9614", "distance": 8.079, "fax": "", "locationFeatures": null, "openingHours": {"mondayOpen": "10:00", "mondayClose": "19:00", "tuesdayOpen": "10:00", "tuesdayClose": "19:00", "wednesdayOpen": "10:00", "wednesdayClose": "19:00", "thursdayOpen": "10:00", "thursdayClose": "20:00", "fridayOpen": "10:00", "fridayClose": "20:00", "saturdayOpen": "10:00", "saturdayClose": "20:00", "sundayOpen": "10:00", "sundayClose": "19:00"}, "operationalInfo": {"storeManager": "SARAH MADDEN", "areaRegion": "QNS7", "areaRegionMgr": "Ben Harris", "regionZone": "QNS", "regionZoneMgr": "Adam Hill"}, "openingHoursExceptions": [], "isOpen": true, "openingDate": null, "closingDate": null, "cncEnabled": true, "cncStore": true}, {"locationID": 34256423, "brandID": 3, "storeID": 6611, "latitude": -27.502243, "longitude": 153.005813, "storeName": "St Lucia", "address": "222 Hawken Drive", "suburb": "St Lucia", "postcode": "4067", "state": "QLD", "phone": "(07) 3734 0856", "distance": 8.238, "fax": "", "locationFeatures": null, "openingHours": {"mondayOpen": "10:00", "mondayClose": "20:00", "tuesdayOpen": "10:00", "tuesdayClose": "20:00", "wednesdayOpen": "10:00", "wednesdayClose": "20:00", "thursdayOpen": "10:00", "thursdayClose": "21:00", "fridayOpen": "10:00", "fridayClose": "21:00", "saturdayOpen": "10:00", "saturdayClose": "21:00", "sundayOpen": "10:00", "sundayClose": "21:00"}, "operationalInfo": {"storeManager": "JAMIE LEE COSGROVE", "areaRegion": "QLD1CB", "areaRegionMgr": "Matthue Woods", "regionZone": "QLD", "regionZoneMgr": "Mat Davey"}, "openingHoursExceptions": [], "isOpen": true, "openingDate": null, "closingDate": null, "cncEnabled": true, "cncStore": true}, {"locationID": 34256186, "brandID": 3, "storeID": 8670, "latitude": -27.501606, "longitude": 152.996858, "storeName": "Ironside", "address": "28 Hawken Drive", "suburb": "St Lucia", "postcode": "4067", "state": "QLD", "phone": "(07) 3734 0882", "distance": 8.498, "fax": "", "locationFeatures": null, "openingHours": {"mondayOpen": "10:00", "mondayClose": "20:00", "tuesdayOpen": "10:00", "tuesdayClose": "20:00", "wednesdayOpen": "10:00", "wednesdayClose": "20:00", "thursdayOpen": "10:00", "thursdayClose": "20:00", "fridayOpen": "10:00", "fridayClose": "21:00", "saturdayOpen": "10:00", "saturdayClose": "21:00", "sundayOpen": "10:00", "sundayClose": "20:00"}, "operationalInfo": {"storeManager": "IAN SPLATT", "areaRegion": "QLD1CB", "areaRegionMgr": "Matthue Woods", "regionZone": "QLD", "regionZoneMgr": "Mat Davey"}, "openingHoursExceptions": [], "isOpen": true, "openingDate": null, "closingDate": null, "cncEnabled": true, "cncStore": true}, {"locationID": 34256171, "brandID": 3, "storeID": 6123, "latitude": -27.596542, "longitude": 153.124738, "storeName": "Rochedale Cellars", "address": "549-563 Underwood Road", "suburb": "Rochedale", "postcode": "4123", "state": "QLD", "phone": "(07) 3726 9603", "distance": 8.766, "fax": "", "locationFeatures": null, "openingHours": {"mondayOpen": "09:00", "mondayClose": "20:00", "tuesdayOpen": "09:00", "tuesdayClose": "20:00", "wednesdayOpen": "09:00", "wednesdayClose": "20:00", "thursdayOpen": "09:00", "thursdayClose": "21:00", "fridayOpen": "09:00", "fridayClose": "21:00", "saturdayOpen": "09:00", "saturdayClose": "21:00", "sundayOpen": "09:00", "sundayClose": "19:00"}, "operationalInfo": {"storeManager": "ROBERT ALI", "areaRegion": "QNS7", "areaRegionMgr": "Ben Harris", "regionZone": "QNS", "regionZoneMgr": "Adam Hill"}, "openingHoursExceptions": [], "isOpen": true, "openingDate": null, "closingDate": null, "cncEnabled": true, "cncStore": true}, {"locationID": 34256078, "brandID": 3, "storeID": 6014, "latitude": -27.555187, "longitude": 152.922543, "storeName": "Middle Park", "address": "Corner Riverhills Road And Horizon Road", "suburb": "Middle Park", "postcode": "4074", "state": "QLD", "phone": "(07) 3723 3880", "distance": 9.087, "fax": "", "locationFeatures": null, "openingHours": {"mondayOpen": "09:00", "mondayClose": "20:00", "tuesdayOpen": "09:00", "tuesdayClose": "20:00", "wednesdayOpen": "09:00", "wednesdayClose": "20:00", "thursdayOpen": "09:00", "thursdayClose": "20:00", "fridayOpen": "09:00", "fridayClose": "21:00", "saturdayOpen": "09:00", "saturdayClose": "21:00", "sundayOpen": "10:00", "sundayClose": "19:00"}, "operationalInfo": {"storeManager": "JOANNE GRANT", "areaRegion": "QLD8", "areaRegionMgr": "Konrad Kolmet (Secondment)", "regionZone": "QLD", "regionZoneMgr": "Mat Davey"}, "openingHoursExceptions": [], "isOpen": true, "openingDate": null, "closingDate": null, "cncEnabled": true, "cncStore": true}, {"locationID": 34256330, "brandID": 3, "storeID": 6648, "latitude": -27.611762, "longitude": 153.124447, "storeName": "Springwood", "address": "17-25 Cinderalla Road", "suburb": "Springwood", "postcode": "4127", "state": "QLD", "phone": "(07) 3726 9681", "distance": 9.355, "fax": "", "locationFeatures": null, "openingHours": {"mondayOpen": "09:00", "mondayClose": "20:00", "tuesdayOpen": "09:00", "tuesdayClose": "20:00", "wednesdayOpen": "09:00", "wednesdayClose": "20:00", "thursdayOpen": "09:00", "thursdayClose": "20:00", "fridayOpen": "09:00", "fridayClose": "20:00", "saturdayOpen": "09:00", "saturdayClose": "20:00", "sundayOpen": "09:00", "sundayClose": "18:00"}, "operationalInfo": {"storeManager": "SHARON OLSON", "areaRegion": "QNS7", "areaRegionMgr": "Ben Harris", "regionZone": "QNS", "regionZoneMgr": "Adam Hill"}, "openingHoursExceptions": [], "isOpen": true, "openingDate": null, "closingDate": null, "cncEnabled": true, "cncStore": true}, {"locationID": 34256323, "brandID": 3, "storeID": 6629, "latitude": -27.49839, "longitude": 152.972979, "storeName": "Indooroopilly", "address": "Moggill Road", "suburb": "Indooroopilly", "postcode": "4068", "state": "QLD", "phone": "(07) 3720 3480", "distance": 9.614, "fax": "", "locationFeatures": null, "openingHours": {"mondayOpen": "09:00", "mondayClose": "21:00", "tuesdayOpen": "09:00", "tuesdayClose": "21:00", "wednesdayOpen": "09:00", "wednesdayClose": "21:00", "thursdayOpen": "09:00", "thursdayClose": "22:00", "fridayOpen": "09:00", "fridayClose": "21:00", "saturdayOpen": "09:00", "saturdayClose": "21:00", "sundayOpen": "09:00", "sundayClose": "18:00"}, "operationalInfo": {"storeManager": "EMILY NANCARROW", "areaRegion": "QLD1CB", "areaRegionMgr": "Matthue Woods", "regionZone": "QLD", "regionZoneMgr": "Mat Davey"}, "openingHoursExceptions": [], "isOpen": true, "openingDate": null, "closingDate": null, "cncEnabled": true, "cncStore": true}, {"locationID": 34256009, "brandID": 3, "storeID": 5468, "latitude": -27.486253, "longitude": 153.006413, "storeName": "West End", "address": "168 Hardgrave Road", "suburb": "West End", "postcode": "4101", "state": "QLD", "phone": "(07) 3734 0891", "distance": 9.975, "fax": "", "locationFeatures": null, "openingHours": {"mondayOpen": "10:00", "mondayClose": "20:00", "tuesdayOpen": "10:00", "tuesdayClose": "20:00", "wednesdayOpen": "10:00", "wednesdayClose": "20:00", "thursdayOpen": "10:00", "thursdayClose": "20:00", "fridayOpen": "10:00", "fridayClose": "22:00", "saturdayOpen": "10:00", "saturdayClose": "22:00", "sundayOpen": "10:00", "sundayClose": "20:00"}, "operationalInfo": {"storeManager": "TRACI LEA HAMPSTEAD", "areaRegion": "QLD1CB", "areaRegionMgr": "Matthue Woods", "regionZone": "QLD", "regionZoneMgr": "Mat Davey"}, "openingHoursExceptions": [], "isOpen": true, "openingDate": null, "closingDate": null, "cncEnabled": true, "cncStore": true}, {"locationID": 34256352, "brandID": 3, "storeID": 6723, "latitude": -27.506585, "longitude": 152.948397, "storeName": "Kenmore Plaza Cellars", "address": "841 Moggill Road", "suburb": "Kenmore", "postcode": "4069", "state": "QLD", "phone": "(07) 3726 9609", "distance": 10.058, "fax": "", "locationFeatures": null, "openingHours": {"mondayOpen": "09:00", "mondayClose": "20:00", "tuesdayOpen": "09:00", "tuesdayClose": "20:00", "wednesdayOpen": "09:00", "wednesdayClose": "20:00", "thursdayOpen": "09:00", "thursdayClose": "21:00", "fridayOpen": "09:00", "fridayClose": "21:00", "saturdayOpen": "09:00", "saturdayClose": "21:00", "sundayOpen": "10:00", "sundayClose": "19:00"}, "operationalInfo": {"storeManager": "MEGAN ADSETT", "areaRegion": "QLD1CB", "areaRegionMgr": "Matthue Woods", "regionZone": "QLD", "regionZoneMgr": "Mat Davey"}, "openingHoursExceptions": [], "isOpen": true, "openingDate": null, "closingDate": null, "cncEnabled": true, "cncStore": true}, {"locationID": 34256043, "brandID": 3, "storeID": 2488, "latitude": -27.485028, "longitude": 152.992567, "storeName": "Toowong", "address": "9 Sherwood Road", "suburb": "Toowong", "postcode": "4066", "state": "QLD", "phone": "(07) 3734 0886", "distance": 10.37, "fax": "", "locationFeatures": null, "openingHours": {"mondayOpen": "10:00", "mondayClose": "20:00", "tuesdayOpen": "10:00", "tuesdayClose": "20:00", "wednesdayOpen": "10:00", "wednesdayClose": "20:00", "thursdayOpen": "09:00", "thursdayClose": "21:00", "fridayOpen": "09:00", "fridayClose": "21:00", "saturdayOpen": "09:00", "saturdayClose": "21:00", "sundayOpen": "09:00", "sundayClose": "18:00"}, "operationalInfo": {"storeManager": "LUKE SMART", "areaRegion": "QLD1CB", "areaRegionMgr": "Matthue Woods", "regionZone": "QLD", "regionZoneMgr": "Mat Davey"}, "openingHoursExceptions": [], "isOpen": true, "openingDate": null, "closingDate": null, "cncEnabled": true, "cncStore": true}, {"locationID": 34256345, "brandID": 3, "storeID": 6684, "latitude": -27.501911, "longitude": 153.102592, "storeName": "Carindale Westfield", "address": "1151 Creek Road", "suburb": "Carindale", "postcode": "4152", "state": "QLD", "phone": "(07) 3308 6180", "distance": 10.4, "fax": "", "locationFeatures": null, "openingHours": {"mondayOpen": "09:00", "mondayClose": "21:00", "tuesdayOpen": "09:00", "tuesdayClose": "21:00", "wednesdayOpen": "09:00", "wednesdayClose": "21:00", "thursdayOpen": "09:00", "thursdayClose": "22:00", "fridayOpen": "09:00", "fridayClose": "21:00", "saturdayOpen": "09:00", "saturdayClose": "21:00", "sundayOpen": "09:00", "sundayClose": "18:00"}, "operationalInfo": {"storeManager": "TIMOTHY SCHULTZ", "areaRegion": "QLD1CB", "areaRegionMgr": "Matthue Woods", "regionZone": "QLD", "regionZoneMgr": "Mat Davey"}, "openingHoursExceptions": [], "isOpen": true, "openingDate": null, "closingDate": null, "cncEnabled": true, "cncStore": true}, {"locationID": 34256353, "brandID": 3, "storeID": 6726, "latitude": -27.506207, "longitude": 152.939, "storeName": "Kenmore Village", "address": "9 Brookfield Road", "suburb": "Brookfield", "postcode": "4069", "state": "QLD", "phone": "(07) 3726 9621", "distance": 10.633, "fax": "", "locationFeatures": null, "openingHours": {"mondayOpen": "09:00", "mondayClose": "20:00", "tuesdayOpen": "09:00", "tuesdayClose": "20:00", "wednesdayOpen": "09:00", "wednesdayClose": "20:00", "thursdayOpen": "09:00", "thursdayClose": "21:00", "fridayOpen": "09:00", "fridayClose": "21:00", "saturdayOpen": "09:00", "saturdayClose": "20:00", "sundayOpen": "09:00", "sundayClose": "18:00"}, "operationalInfo": {"storeManager": "", "areaRegion": "QLD1CB", "areaRegionMgr": "Matthue Woods", "regionZone": "QLD", "regionZoneMgr": "Mat Davey"}, "openingHoursExceptions": [], "isOpen": true, "openingDate": null, "closingDate": null, "cncEnabled": true, "cncStore": true}, {"locationID": 34256239, "brandID": 3, "storeID": 6209, "latitude": -27.642843, "longitude": 153.117515, "storeName": "Logan City Centre", "address": "Corner Kingston Road And Wembley Road", "suburb": "Woodridge", "postcode": "4114", "state": "QLD", "phone": "(07) 3734 0848", "distance": 10.88, "fax": "", "locationFeatures": null, "openingHours": {"mondayOpen": "09:00", "mondayClose": "20:00", "tuesdayOpen": "09:00", "tuesdayClose": "20:00", "wednesdayOpen": "09:00", "wednesdayClose": "20:00", "thursdayOpen": "09:00", "thursdayClose": "20:00", "fridayOpen": "09:00", "fridayClose": "21:00", "saturdayOpen": "09:00", "saturdayClose": "21:00", "sundayOpen": "09:00", "sundayClose": "18:00"}, "operationalInfo": {"storeManager": "TERRY WARE", "areaRegion": "QNS6", "areaRegionMgr": "Ian Haines", "regionZone": "QNS", "regionZoneMgr": "Adam Hill"}, "openingHoursExceptions": [], "isOpen": true, "openingDate": null, "closingDate": null, "cncEnabled": true, "cncStore": true}, {"locationID": 34256173, "brandID": 3, "storeID": 6127, "latitude": -27.501652, "longitude": 153.116217, "storeName": "Carindale", "address": "42 Scrub Road", "suburb": "Carindale", "postcode": "4152", "state": "QLD", "phone": "(07) 3734 0842", "distance": 11.188, "fax": "", "locationFeatures": null, "openingHours": {"mondayOpen": "10:00", "mondayClose": "20:00", "tuesdayOpen": "10:00", "tuesdayClose": "20:00", "wednesdayOpen": "10:00", "wednesdayClose": "20:00", "thursdayOpen": "10:00", "thursdayClose": "20:00", "fridayOpen": "10:00", "fridayClose": "21:00", "saturdayOpen": "10:00", "saturdayClose": "21:00", "sundayOpen": "10:00", "sundayClose": "19:00"}, "operationalInfo": {"storeManager": "ALBERT WESSLING", "areaRegion": "QNS7", "areaRegionMgr": "Ben Harris", "regionZone": "QNS", "regionZoneMgr": "Adam Hill"}, "openingHoursExceptions": [], "isOpen": true, "openingDate": null, "closingDate": null, "cncEnabled": true, "cncStore": true}, {"locationID": 34256354, "brandID": 3, "storeID": 7008, "latitude": -27.469152, "longitude": 153.024554, "storeName": "Adelaide Street", "address": "79 Adelaide Street", "suburb": "Brisbane", "postcode": "4000", "state": "QLD", "phone": "(07) 2890 1680", "distance": 11.736, "fax": "", "locationFeatures": null, "openingHours": {"mondayOpen": "09:00", "mondayClose": "21:00", "tuesdayOpen": "09:00", "tuesdayClose": "21:00", "wednesdayOpen": "09:00", "wednesdayClose": "21:00", "thursdayOpen": "09:00", "thursdayClose": "21:00", "fridayOpen": "09:00", "fridayClose": "21:00", "saturdayOpen": "09:00", "saturdayClose": "21:00", "sundayOpen": "10:00", "sundayClose": "18:00"}, "operationalInfo": {"storeManager": "LACHLAN RAFF", "areaRegion": "QLD1CB", "areaRegionMgr": "Matthue Woods", "regionZone": "QLD", "regionZoneMgr": "Mat Davey"}, "openingHoursExceptions": [], "isOpen": true, "openingDate": null, "closingDate": null, "cncEnabled": true, "cncStore": true}, {"locationID": 34256088, "brandID": 3, "storeID": 6079, "latitude": -27.468931, "longitude": 153.002931, "storeName": "Milton Village", "address": "12-36 Baroona Road", "suburb": "Milton", "postcode": "4064", "state": "QLD", "phone": "(07) 3726 9657", "distance": 11.924, "fax": "", "locationFeatures": null, "openingHours": {"mondayOpen": "10:00", "mondayClose": "21:00", "tuesdayOpen": "10:00", "tuesdayClose": "21:00", "wednesdayOpen": "10:00", "wednesdayClose": "21:00", "thursdayOpen": "10:00", "thursdayClose": "21:00", "fridayOpen": "10:00", "fridayClose": "22:00", "saturdayOpen": "10:00", "saturdayClose": "22:00", "sundayOpen": "10:00", "sundayClose": "21:00"}, "operationalInfo": {"storeManager": "TY JAQUES", "areaRegion": "QLD2CB", "areaRegionMgr": "Kellianne Doyle", "regionZone": "QLD", "regionZoneMgr": "Mat Davey"}, "openingHoursExceptions": [], "isOpen": true, "openingDate": null, "closingDate": null, "cncEnabled": true, "cncStore": true}, {"locationID": 34256413, "brandID": 3, "storeID": 6543, "latitude": -27.465241, "longitude": 153.079213, "storeName": "Morningside", "address": "38 Junction Road", "suburb": "Morningside", "postcode": "4170", "state": "QLD", "phone": "(07) 3734 0883", "distance": 12.989, "fax": "", "locationFeatures": null, "openingHours": {"mondayOpen": "09:00", "mondayClose": "21:00", "tuesdayOpen": "09:00", "tuesdayClose": "21:00", "wednesdayOpen": "09:00", "wednesdayClose": "21:00", "thursdayOpen": "09:00", "thursdayClose": "21:00", "fridayOpen": "09:00", "fridayClose": "21:00", "saturdayOpen": "09:00", "saturdayClose": "20:00", "sundayOpen": "10:00", "sundayClose": "18:00"}, "operationalInfo": {"storeManager": "DEVANGKUMAR PATEL", "areaRegion": "QLD1CB", "areaRegionMgr": "Matthue Woods", "regionZone": "QLD", "regionZoneMgr": "Mat Davey"}, "openingHoursExceptions": [], "isOpen": true, "openingDate": null, "closingDate": null, "cncEnabled": true, "cncStore": true}, {"locationID": 34256350, "brandID": 3, "storeID": 6691, "latitude": -27.471362, "longitude": 153.097965, "storeName": "Cannon Hill", "address": "Corner Creek Road And Wynnum Road", "suburb": "Cannon Hill", "postcode": "4170", "state": "QLD", "phone": "(07) 3734 0864", "distance": 13.027, "fax": "", "locationFeatures": null, "openingHours": {"mondayOpen": "09:00", "mondayClose": "20:00", "tuesdayOpen": "09:00", "tuesdayClose": "20:00", "wednesdayOpen": "09:00", "wednesdayClose": "20:00", "thursdayOpen": "09:00", "thursdayClose": "21:00", "fridayOpen": "09:00", "fridayClose": "21:00", "saturdayOpen": "09:00", "saturdayClose": "21:00", "sundayOpen": "09:00", "sundayClose": "18:00"}, "operationalInfo": {"storeManager": "PHELAN HOLMES", "areaRegion": "QLD1CB", "areaRegionMgr": "Matthue Woods", "regionZone": "QLD", "regionZoneMgr": "Mat Davey"}, "openingHoursExceptions": [], "isOpen": true, "openingDate": null, "closingDate": null, "cncEnabled": true, "cncStore": true}, {"locationID": 34256336, "brandID": 3, "storeID": 6664, "latitude": -27.458331, "longitude": 152.995581, "storeName": "Paddington", "address": "147 Latrobe Terrace", "suburb": "Paddington", "postcode": "4064", "state": "QLD", "phone": "(07) 3734 0862", "distance": 13.196, "fax": "", "locationFeatures": null, "openingHours": {"mondayOpen": "10:00", "mondayClose": "21:00", "tuesdayOpen": "10:00", "tuesdayClose": "21:00", "wednesdayOpen": "10:00", "wednesdayClose": "21:00", "thursdayOpen": "10:00", "thursdayClose": "21:00", "fridayOpen": "10:00", "fridayClose": "21:00", "saturdayOpen": "10:00", "saturdayClose": "21:00", "sundayOpen": "10:00", "sundayClose": "21:00"}, "operationalInfo": {"storeManager": "MICHAEL EXLEY", "areaRegion": "QLD2CB", "areaRegionMgr": "Kellianne Doyle", "regionZone": "QLD", "regionZoneMgr": "Mat Davey"}, "openingHoursExceptions": [], "isOpen": true, "openingDate": null, "closingDate": null, "cncEnabled": true, "cncStore": true}, {"locationID": 34256184, "brandID": 3, "storeID": 8644, "latitude": -27.644038, "longitude": 153.153677, "storeName": "Daisy Hill Liquor King", "address": "4-14 Alamanda Drive", "suburb": "Daisy Hill", "postcode": "4127", "state": "QLD", "phone": "(07) 3726 9692", "distance": 13.345, "fax": "", "locationFeatures": null, "openingHours": {"mondayOpen": "10:00", "mondayClose": "19:00", "tuesdayOpen": "10:00", "tuesdayClose": "19:00", "wednesdayOpen": "10:00", "wednesdayClose": "19:00", "thursdayOpen": "10:00", "thursdayClose": "19:00", "fridayOpen": "10:00", "fridayClose": "20:00", "saturdayOpen": "10:00", "saturdayClose": "20:00", "sundayOpen": "10:00", "sundayClose": "16:00"}, "operationalInfo": {"storeManager": "BIANCAH STRONG", "areaRegion": "QNS6", "areaRegionMgr": "Ian Haines", "regionZone": "QNS", "regionZoneMgr": "Adam Hill"}, "openingHoursExceptions": [], "isOpen": true, "openingDate": null, "closingDate": null, "cncEnabled": true, "cncStore": true}, {"locationID": 34256241, "brandID": 3, "storeID": 6222, "latitude": -27.455153, "longitude": 153.006767, "storeName": "Red Hill", "address": "152 Musgrave Road", "suburb": "Red Hill", "postcode": "4059", "state": "QLD", "phone": "(07) 3734 0849", "distance": 13.393, "fax": "", "locationFeatures": null, "openingHours": {"mondayOpen": "11:00", "mondayClose": "20:00", "tuesdayOpen": "11:00", "tuesdayClose": "20:00", "wednesdayOpen": "11:00", "wednesdayClose": "20:00", "thursdayOpen": "11:00", "thursdayClose": "21:00", "fridayOpen": "10:00", "fridayClose": "21:00", "saturdayOpen": "10:00", "saturdayClose": "21:00", "sundayOpen": "11:00", "sundayClose": "20:00"}, "operationalInfo": {"storeManager": "DONNA GRAHAM", "areaRegion": "QLD2CB", "areaRegionMgr": "Kellianne Doyle", "regionZone": "QLD", "regionZoneMgr": "Mat Davey"}, "openingHoursExceptions": [], "isOpen": true, "openingDate": null, "closingDate": null, "cncEnabled": true, "cncStore": true}, {"locationID": 34256300, "brandID": 3, "storeID": 6460, "latitude": -27.696581, "longitude": 153.039344, "storeName": "Park Ridge", "address": "Park Ridge Road", "suburb": "Park Ridge", "postcode": "4125", "state": "QLD", "phone": "(07) 3380 4880", "distance": 13.604, "fax": "", "locationFeatures": null, "openingHours": {"mondayOpen": "09:00", "mondayClose": "20:00", "tuesdayOpen": "09:00", "tuesdayClose": "20:00", "wednesdayOpen": "09:00", "wednesdayClose": "20:00", "thursdayOpen": "09:00", "thursdayClose": "21:00", "fridayOpen": "09:00", "fridayClose": "21:00", "saturdayOpen": "09:00", "saturdayClose": "20:00", "sundayOpen": "09:00", "sundayClose": "18:00"}, "operationalInfo": {"storeManager": "PAUL DWYER", "areaRegion": "QNS6", "areaRegionMgr": "Ian Haines", "regionZone": "QNS", "regionZoneMgr": "Adam Hill"}, "openingHoursExceptions": [], "isOpen": true, "openingDate": null, "closingDate": null, "cncEnabled": true, "cncStore": true}, {"locationID": 34256316, "brandID": 3, "storeID": 6616, "latitude": -27.679369, "longitude": 153.115719, "storeName": "Marsden", "address": "55-77  Chambers Flat Road", "suburb": "Marsden", "postcode": "4132", "state": "QLD", "phone": "(07) 3726 9693", "distance": 13.932, "fax": "", "locationFeatures": null, "openingHours": {"mondayOpen": "09:00", "mondayClose": "20:00", "tuesdayOpen": "09:00", "tuesdayClose": "20:00", "wednesdayOpen": "09:00", "wednesdayClose": "21:00", "thursdayOpen": "09:00", "thursdayClose": "21:00", "fridayOpen": "09:00", "fridayClose": "21:00", "saturdayOpen": "09:00", "saturdayClose": "21:00", "sundayOpen": "09:00", "sundayClose": "18:00"}, "operationalInfo": {"storeManager": "MICHELLE BADGERY", "areaRegion": "QNS6", "areaRegionMgr": "Ian Haines", "regionZone": "QNS", "regionZoneMgr": "Adam Hill"}, "openingHoursExceptions": [], "isOpen": true, "openingDate": null, "closingDate": null, "cncEnabled": true, "cncStore": true}, {"locationID": 34256227, "brandID": 3, "storeID": 6146, "latitude": -27.437231, "longitude": 153.023113, "storeName": "Windsor (qld)", "address": "142 Newmarket Road", "suburb": "Windsor", "postcode": "4030", "state": "QLD", "phone": "(07) 3734 0844", "distance": 15.287, "fax": "", "locationFeatures": null, "openingHours": {"mondayOpen": "09:00", "mondayClose": "20:00", "tuesdayOpen": "09:00", "tuesdayClose": "20:00", "wednesdayOpen": "09:00", "wednesdayClose": "21:00", "thursdayOpen": "09:00", "thursdayClose": "21:00", "fridayOpen": "09:00", "fridayClose": "21:00", "saturdayOpen": "09:00", "saturdayClose": "21:00", "sundayOpen": "10:00", "sundayClose": "20:00"}, "operationalInfo": {"storeManager": "TIMOTHY HALES", "areaRegion": "QLD2CB", "areaRegionMgr": "Kellianne Doyle", "regionZone": "QLD", "regionZoneMgr": "Mat Davey"}, "openingHoursExceptions": [], "isOpen": true, "openingDate": null, "closingDate": null, "cncEnabled": true, "cncStore": true}, {"locationID": 34256406, "brandID": 3, "storeID": 6535, "latitude": -27.646412, "longitude": 152.87173, "storeName": "Redbank Plains", "address": "393 Redbank Plains Road", "suburb": "Redbank Plains", "postcode": "4301", "state": "QLD", "phone": "(07) 3201 9380", "distance": 15.388, "fax": "", "locationFeatures": null, "openingHours": {"mondayOpen": "09:00", "mondayClose": "19:00", "tuesdayOpen": "09:00", "tuesdayClose": "19:00", "wednesdayOpen": "09:00", "wednesdayClose": "19:00", "thursdayOpen": "09:00", "thursdayClose": "20:00", "fridayOpen": "09:00", "fridayClose": "20:00", "saturdayOpen": "09:00", "saturdayClose": "20:00", "sundayOpen": "09:00", "sundayClose": "18:00"}, "operationalInfo": {"storeManager": "CINDY LARCOMBE", "areaRegion": "QLD8", "areaRegionMgr": "Konrad Kolmet (Secondment)", "regionZone": "QLD", "regionZoneMgr": "Mat Davey"}, "openingHoursExceptions": [], "isOpen": true, "openingDate": null, "closingDate": null, "cncEnabled": true, "cncStore": true}, {"locationID": 34256308, "brandID": 3, "storeID": 6478, "latitude": -27.676598, "longitude": 152.902948, "storeName": "Springfield Orion", "address": "1 Main Street", "suburb": "Springfield Central", "postcode": "4300", "state": "QLD", "phone": "(07) 3470 3180", "distance": 15.447, "fax": "", "locationFeatures": null, "openingHours": {"mondayOpen": "09:00", "mondayClose": "20:00", "tuesdayOpen": "09:00", "tuesdayClose": "20:00", "wednesdayOpen": "09:00", "wednesdayClose": "20:00", "thursdayOpen": "09:00", "thursdayClose": "21:00", "fridayOpen": "09:00", "fridayClose": "21:00", "saturdayOpen": "09:00", "saturdayClose": "21:00", "sundayOpen": "09:00", "sundayClose": "18:00"}, "operationalInfo": {"storeManager": "JESSICA BUCKINGHAM", "areaRegion": "QLD8", "areaRegionMgr": "Konrad Kolmet (Secondment)", "regionZone": "QLD", "regionZoneMgr": "Mat Davey"}, "openingHoursExceptions": [], "isOpen": true, "openingDate": null, "closingDate": null, "cncEnabled": true, "cncStore": true}, {"locationID": 34256331, "brandID": 3, "storeID": 6649, "latitude": -27.445695, "longitude": 152.952585, "storeName": "The Gap", "address": "992 Water Works Road", "suburb": "The Gap", "postcode": "4061", "state": "QLD", "phone": "(07) 3734 0859", "distance": 15.651, "fax": "", "locationFeatures": null, "openingHours": {"mondayOpen": "09:00", "mondayClose": "20:00", "tuesdayOpen": "09:00", "tuesdayClose": "20:00", "wednesdayOpen": "09:00", "wednesdayClose": "20:00", "thursdayOpen": "09:00", "thursdayClose": "21:00", "fridayOpen": "09:00", "fridayClose": "21:00", "saturdayOpen": "09:00", "saturdayClose": "20:00", "sundayOpen": "09:00", "sundayClose": "18:00"}, "operationalInfo": {"storeManager": "TALJINDER SINGH", "areaRegion": "QLD2CB", "areaRegionMgr": "Kellianne Doyle", "regionZone": "QLD", "regionZoneMgr": "Mat Davey"}, "openingHoursExceptions": [], "isOpen": true, "openingDate": null, "closingDate": null, "cncEnabled": true, "cncStore": true}, {"locationID": 34256418, "brandID": 3, "storeID": 6597, "latitude": -27.6616, "longitude": 153.171, "storeName": "Hyperdome Liquor King", "address": "14-38 Bryants Road", "suburb": "Loganholme", "postcode": "4129", "state": "QLD", "phone": "(07) 3734 0809", "distance": 15.697, "fax": "", "locationFeatures": null, "openingHours": {"mondayOpen": "09:00", "mondayClose": "20:00", "tuesdayOpen": "09:00", "tuesdayClose": "20:00", "wednesdayOpen": "09:00", "wednesdayClose": "20:00", "thursdayOpen": "09:00", "thursdayClose": "21:00", "fridayOpen": "09:00", "fridayClose": "21:00", "saturdayOpen": "09:00", "saturdayClose": "21:00", "sundayOpen": "09:00", "sundayClose": "18:00"}, "operationalInfo": {"storeManager": "PAREURUORA TAPSELL", "areaRegion": "QNS6", "areaRegionMgr": "Ian Haines", "regionZone": "QNS", "regionZoneMgr": "Adam Hill"}, "openingHoursExceptions": [], "isOpen": true, "openingDate": null, "closingDate": null, "cncEnabled": true, "cncStore": true}, {"locationID": 34256179, "brandID": 3, "storeID": 8638, "latitude": -27.66163, "longitude": 153.17115, "storeName": "Fitzys Loganholme Drive", "address": "Corner Pacific Highway And Bryants Road", "suburb": "Loganholme", "postcode": "4129", "state": "QLD", "phone": "(07) 3726 9651", "distance": 15.709, "fax": "", "locationFeatures": null, "openingHours": {"mondayOpen": "10:00", "mondayClose": "21:00", "tuesdayOpen": "10:00", "tuesdayClose": "21:00", "wednesdayOpen": "10:00", "wednesdayClose": "21:00", "thursdayOpen": "10:00", "thursdayClose": "22:00", "fridayOpen": "10:00", "fridayClose": "22:00", "saturdayOpen": "10:00", "saturdayClose": "22:00", "sundayOpen": "10:00", "sundayClose": "20:00"}, "operationalInfo": {"storeManager": "JADE KEENE", "areaRegion": "QNS6", "areaRegionMgr": "Ian Haines", "regionZone": "QNS", "regionZoneMgr": "Adam Hill"}, "openingHoursExceptions": [], "isOpen": true, "openingDate": null, "closingDate": null, "cncEnabled": true, "cncStore": true}, {"locationID": 34255950, "brandID": 3, "storeID": 8370, "latitude": -27.534649, "longitude": 153.206071, "storeName": "Currumbin Court Bottleshop", "address": "3 Currumbin Court", "suburb": "Capalaba", "postcode": "4157", "state": "QLD", "phone": "(07) 3726 9691", "distance": 15.991, "fax": "", "locationFeatures": null, "openingHours": {"mondayOpen": "10:00", "mondayClose": "19:00", "tuesdayOpen": "10:00", "tuesdayClose": "19:00", "wednesdayOpen": "10:00", "wednesdayClose": "19:00", "thursdayOpen": "10:00", "thursdayClose": "20:00", "fridayOpen": "10:00", "fridayClose": "20:00", "saturdayOpen": "10:00", "saturdayClose": "20:00", "sundayOpen": "10:00", "sundayClose": "18:00"}, "operationalInfo": {"storeManager": "KYM PATTISON", "areaRegion": "QNS7", "areaRegionMgr": "Ben Harris", "regionZone": "QNS", "regionZoneMgr": "Adam Hill"}, "openingHoursExceptions": [], "isOpen": true, "openingDate": null, "closingDate": null, "cncEnabled": true, "cncStore": true}, {"locationID": 34256337, "brandID": 3, "storeID": 6666, "latitude": -27.434076, "longitude": 153.065449, "storeName": "Ascot", "address": "Corner Racecourse Street And Dobson Street", "suburb": "Ascot", "postcode": "4007", "state": "QLD", "phone": "(07) 2105 0580", "distance": 15.994, "fax": "", "locationFeatures": null, "openingHours": {"mondayOpen": "09:00", "mondayClose": "21:00", "tuesdayOpen": "09:00", "tuesdayClose": "21:00", "wednesdayOpen": "09:00", "wednesdayClose": "21:00", "thursdayOpen": "09:00", "thursdayClose": "21:00", "fridayOpen": "09:00", "fridayClose": "21:00", "saturdayOpen": "09:00", "saturdayClose": "21:00", "sundayOpen": "10:00", "sundayClose": "19:00"}, "operationalInfo": {"storeManager": "STEPHEN HOHIPA", "areaRegion": "QLD2CB", "areaRegionMgr": "Kellianne Doyle", "regionZone": "QLD", "regionZoneMgr": "Mat Davey"}, "openingHoursExceptions": [], "isOpen": true, "openingDate": null, "closingDate": null, "cncEnabled": true, "cncStore": true}, {"locationID": 34256168, "brandID": 3, "storeID": 6113, "latitude": -27.692578, "longitude": 153.135438, "storeName": "Waterford Plaza Cellars", "address": "Corner Kingston-Beenleigh Road And Tygum Road", "suburb": "Waterford", "postcode": "4133", "state": "QLD", "phone": "(07) 3734 0840", "distance": 16.094, "fax": "", "locationFeatures": null, "openingHours": {"mondayOpen": "09:00", "mondayClose": "19:00", "tuesdayOpen": "09:00", "tuesdayClose": "19:00", "wednesdayOpen": "09:00", "wednesdayClose": "19:00", "thursdayOpen": "09:00", "thursdayClose": "20:00", "fridayOpen": "09:00", "fridayClose": "20:00", "saturdayOpen": "09:00", "saturdayClose": "20:00", "sundayOpen": "09:00", "sundayClose": "18:00"}, "operationalInfo": {"storeManager": "CALEB KJAERGAARD", "areaRegion": "QNS6", "areaRegionMgr": "Ian Haines", "regionZone": "QNS", "regionZoneMgr": "Adam Hill"}, "openingHoursExceptions": [], "isOpen": true, "openingDate": null, "closingDate": null, "cncEnabled": true, "cncStore": true}, {"locationID": 34256181, "brandID": 3, "storeID": 8641, "latitude": -27.663414, "longitude": 153.175631, "storeName": "Loganholme Shopping Village", "address": "37-59 Bryants Road", "suburb": "Loganholme", "postcode": "4129", "state": "QLD", "phone": "(07) 3734 0874", "distance": 16.132, "fax": "", "locationFeatures": null, "openingHours": {"mondayOpen": "10:00", "mondayClose": "20:00", "tuesdayOpen": "10:00", "tuesdayClose": "20:00", "wednesdayOpen": "10:00", "wednesdayClose": "20:00", "thursdayOpen": "10:00", "thursdayClose": "21:00", "fridayOpen": "10:00", "fridayClose": "21:00", "saturdayOpen": "10:00", "saturdayClose": "21:00", "sundayOpen": "10:00", "sundayClose": "20:00"}, "operationalInfo": {"storeManager": "ROBERT OSWALD", "areaRegion": "QNS6", "areaRegionMgr": "Ian Haines", "regionZone": "QNS", "regionZoneMgr": "Adam Hill"}, "openingHoursExceptions": [], "isOpen": true, "openingDate": null, "closingDate": null, "cncEnabled": true, "cncStore": true}, {"locationID": 34256182, "brandID": 3, "storeID": 8642, "latitude": -27.693008, "longitude": 153.143167, "storeName": "Fitzys Waterford", "address": "24-34 Albert Street", "suburb": "Waterford", "postcode": "4133", "state": "QLD", "phone": "(07) 3726 9672", "distance": 16.523, "fax": "", "locationFeatures": null, "openingHours": {"mondayOpen": "10:00", "mondayClose": "20:00", "tuesdayOpen": "10:00", "tuesdayClose": "20:00", "wednesdayOpen": "10:00", "wednesdayClose": "20:00", "thursdayOpen": "10:00", "thursdayClose": "21:00", "fridayOpen": "10:00", "fridayClose": "22:00", "saturdayOpen": "10:00", "saturdayClose": "22:00", "sundayOpen": "10:00", "sundayClose": "19:00"}, "operationalInfo": {"storeManager": "PETER FULLER", "areaRegion": "QNS6", "areaRegionMgr": "Ian Haines", "regionZone": "QNS", "regionZoneMgr": "Adam Hill"}, "openingHoursExceptions": [], "isOpen": true, "openingDate": null, "closingDate": null, "cncEnabled": true, "cncStore": true}, {"locationID": 34256306, "brandID": 3, "storeID": 6472, "latitude": -27.424107, "longitude": 152.999613, "storeName": "Alderley", "address": "34 South Pine Road", "suburb": "Alderley", "postcode": "4051", "state": "QLD", "phone": "(07) 3550 2580", "distance": 16.895, "fax": "", "locationFeatures": null, "openingHours": {"mondayOpen": "09:00", "mondayClose": "21:00", "tuesdayOpen": "09:00", "tuesdayClose": "21:00", "wednesdayOpen": "09:00", "wednesdayClose": "21:00", "thursdayOpen": "09:00", "thursdayClose": "21:00", "fridayOpen": "09:00", "fridayClose": "21:00", "saturdayOpen": "09:00", "saturdayClose": "21:00", "sundayOpen": "09:00", "sundayClose": "18:00"}, "operationalInfo": {"storeManager": "LAURENCE RUDDLE", "areaRegion": "QLD2CB", "areaRegionMgr": "Kellianne Doyle", "regionZone": "QLD", "regionZoneMgr": "Mat Davey"}, "openingHoursExceptions": [], "isOpen": true, "openingDate": null, "closingDate": null, "cncEnabled": true, "cncStore": true}, {"locationID": 34256160, "brandID": 3, "storeID": 6094, "latitude": -27.42253, "longitude": 153.034156, "storeName": "Lutwyche", "address": "543 Lutwyche Rd & Lowerson Rd", "suburb": "Lutwyche", "postcode": "4030", "state": "QLD", "phone": "(07) 3922 8480", "distance": 16.934, "fax": "", "locationFeatures": null, "openingHours": {"mondayOpen": "09:00", "mondayClose": "21:00", "tuesdayOpen": "09:00", "tuesdayClose": "21:00", "wednesdayOpen": "09:00", "wednesdayClose": "21:00", "thursdayOpen": "09:00", "thursdayClose": "21:00", "fridayOpen": "09:00", "fridayClose": "21:00", "saturdayOpen": "09:00", "saturdayClose": "21:00", "sundayOpen": "09:00", "sundayClose": "18:00"}, "operationalInfo": {"storeManager": "MICHELLE MCGRATH", "areaRegion": "QLD2CB", "areaRegionMgr": "Kellianne Doyle", "regionZone": "QLD", "regionZoneMgr": "Mat Davey"}, "openingHoursExceptions": [], "isOpen": true, "openingDate": null, "closingDate": null, "cncEnabled": true, "cncStore": true}, {"locationID": 34256314, "brandID": 3, "storeID": 6510, "latitude": -27.456476, "longitude": 153.154731, "storeName": "Wynnum West", "address": "2021 Wynnum Road", "suburb": "Wynnum West", "postcode": "4178", "state": "QLD", "phone": "(07) 3734 0853", "distance": 17.128, "fax": "", "locationFeatures": null, "openingHours": {"mondayOpen": "09:00", "mondayClose": "20:00", "tuesdayOpen": "09:00", "tuesdayClose": "20:00", "wednesdayOpen": "09:00", "wednesdayClose": "20:00", "thursdayOpen": "09:00", "thursdayClose": "21:00", "fridayOpen": "09:00", "fridayClose": "21:00", "saturdayOpen": "09:00", "saturdayClose": "21:00", "sundayOpen": "09:00", "sundayClose": "18:00"}, "operationalInfo": {"storeManager": "JOEL POLAK", "areaRegion": "QLD1CB", "areaRegionMgr": "Matthue Woods", "regionZone": "QLD", "regionZoneMgr": "Mat Davey"}, "openingHoursExceptions": [], "isOpen": true, "openingDate": null, "closingDate": null, "cncEnabled": true, "cncStore": true}, {"locationID": 34255941, "brandID": 3, "storeID": 8339, "latitude": -27.422718, "longitude": 152.990481, "storeName": "Enoggera", "address": "318 Wardell Street", "suburb": "Enoggera", "postcode": "4051", "state": "QLD", "phone": "(07) 3734 0868", "distance": 17.169, "fax": "", "locationFeatures": null, "openingHours": {"mondayOpen": "09:00", "mondayClose": "20:00", "tuesdayOpen": "09:00", "tuesdayClose": "20:00", "wednesdayOpen": "09:00", "wednesdayClose": "20:00", "thursdayOpen": "09:00", "thursdayClose": "21:00", "fridayOpen": "09:00", "fridayClose": "21:00", "saturdayOpen": "09:00", "saturdayClose": "21:00", "sundayOpen": "09:00", "sundayClose": "19:00"}, "operationalInfo": {"storeManager": "JASON MARCH", "areaRegion": "QLD2CB", "areaRegionMgr": "Kellianne Doyle", "regionZone": "QLD", "regionZoneMgr": "Mat Davey"}, "openingHoursExceptions": [], "isOpen": true, "openingDate": null, "closingDate": null, "cncEnabled": true, "cncStore": true}, {"locationID": 34256225, "brandID": 3, "storeID": 6136, "latitude": -27.454041, "longitude": 153.167096, "storeName": "Wynnum", "address": "210 West Avenue", "suburb": "Wynnum", "postcode": "4178", "state": "QLD", "phone": "(07) 3734 0843", "distance": 18.023, "fax": "", "locationFeatures": null, "openingHours": {"mondayOpen": "09:00", "mondayClose": "20:00", "tuesdayOpen": "09:00", "tuesdayClose": "20:00", "wednesdayOpen": "09:00", "wednesdayClose": "20:00", "thursdayOpen": "09:00", "thursdayClose": "20:00", "fridayOpen": "09:00", "fridayClose": "21:00", "saturdayOpen": "09:00", "saturdayClose": "20:00", "sundayOpen": "10:00", "sundayClose": "19:00"}, "operationalInfo": {"storeManager": "ZOE JEFFERIES", "areaRegion": "QLD1CB", "areaRegionMgr": "Matthue Woods", "regionZone": "QLD", "regionZoneMgr": "Mat Davey"}, "openingHoursExceptions": [], "isOpen": true, "openingDate": null, "closingDate": null, "cncEnabled": true, "cncStore": true}, {"locationID": 34256180, "brandID": 3, "storeID": 8640, "latitude": -27.690339, "longitude": 153.177928, "storeName": "Clarks Rd Liquor King", "address": "2-8 Ascot Drive", "suburb": "Loganholme", "postcode": "4129", "state": "QLD", "phone": "(07) 3734 0873", "distance": 18.258, "fax": "", "locationFeatures": null, "openingHours": {"mondayOpen": "10:00", "mondayClose": "20:00", "tuesdayOpen": "10:00", "tuesdayClose": "20:00", "wednesdayOpen": "10:00", "wednesdayClose": "20:00", "thursdayOpen": "10:00", "thursdayClose": "20:00", "fridayOpen": "10:00", "fridayClose": "21:00", "saturdayOpen": "10:00", "saturdayClose": "20:00", "sundayOpen": "10:00", "sundayClose": "19:00"}, "operationalInfo": {"storeManager": "MICHAEL HALL", "areaRegion": "QNS6", "areaRegionMgr": "Ian Haines", "regionZone": "QNS", "regionZoneMgr": "Adam Hill"}, "openingHoursExceptions": [], "isOpen": true, "openingDate": null, "closingDate": null, "cncEnabled": true, "cncStore": true}, {"locationID": 34256183, "brandID": 3, "storeID": 8643, "latitude": -27.700065, "longitude": 153.168514, "storeName": "Edens Landing Liquor King", "address": "127 Castille Crescent", "suburb": "Edens Landing", "postcode": "4207", "state": "QLD", "phone": "(07) 3734 0875", "distance": 18.498, "fax": "", "locationFeatures": null, "openingHours": {"mondayOpen": "11:00", "mondayClose": "19:00", "tuesdayOpen": "11:00", "tuesdayClose": "19:00", "wednesdayOpen": "11:00", "wednesdayClose": "19:00", "thursdayOpen": "11:00", "thursdayClose": "19:00", "fridayOpen": "11:00", "fridayClose": "20:00", "saturdayOpen": "11:00", "saturdayClose": "20:00", "sundayOpen": "11:00", "sundayClose": "19:00"}, "operationalInfo": {"storeManager": "MATTHEW KNIGHT", "areaRegion": "QNS6", "areaRegionMgr": "Ian Haines", "regionZone": "QNS", "regionZoneMgr": "Adam Hill"}, "openingHoursExceptions": [], "isOpen": true, "openingDate": null, "closingDate": null, "cncEnabled": true, "cncStore": true}, {"locationID": 34255942, "brandID": 3, "storeID": 8340, "latitude": -27.492447, "longitude": 153.216923, "storeName": "Birkdale Grape", "address": "180 Birkdale Road", "suburb": "Birkdale", "postcode": "4159", "state": "QLD", "phone": "(07) 3726 9650", "distance": 18.677, "fax": "", "locationFeatures": null, "openingHours": {"mondayOpen": "10:00", "mondayClose": "20:00", "tuesdayOpen": "10:00", "tuesdayClose": "20:00", "wednesdayOpen": "10:00", "wednesdayClose": "20:00", "thursdayOpen": "10:00", "thursdayClose": "20:00", "fridayOpen": "10:00", "fridayClose": "21:00", "saturdayOpen": "10:00", "saturdayClose": "21:00", "sundayOpen": "10:00", "sundayClose": "20:00"}, "operationalInfo": {"storeManager": "ASHLEY HOFFMAN", "areaRegion": "QNS7", "areaRegionMgr": "Ben Harris", "regionZone": "QNS", "regionZoneMgr": "Adam Hill"}, "openingHoursExceptions": [], "isOpen": true, "openingDate": null, "closingDate": null, "cncEnabled": true, "cncStore": true}, {"locationID": 34256299, "brandID": 3, "storeID": 6324, "latitude": -27.40879, "longitude": 152.979984, "storeName": "Brookside", "address": "Osborne Road", "suburb": "Mitchelton", "postcode": "4053", "state": "QLD", "phone": "(07) 3513 9280", "distance": 18.861, "fax": "", "locationFeatures": null, "openingHours": {"mondayOpen": "09:00", "mondayClose": "21:00", "tuesdayOpen": "09:00", "tuesdayClose": "21:00", "wednesdayOpen": "09:00", "wednesdayClose": "21:00", "thursdayOpen": "09:00", "thursdayClose": "21:00", "fridayOpen": "09:00", "fridayClose": "21:00", "saturdayOpen": "09:00", "saturdayClose": "20:00", "sundayOpen": "09:00", "sundayClose": "18:00"}, "operationalInfo": {"storeManager": "TORY BUTEUX", "areaRegion": "QLD2CB", "areaRegionMgr": "Kellianne Doyle", "regionZone": "QLD", "regionZoneMgr": "Mat Davey"}, "openingHoursExceptions": [], "isOpen": true, "openingDate": null, "closingDate": null, "cncEnabled": true, "cncStore": true}, {"locationID": 34256074, "brandID": 3, "storeID": 6004, "latitude": -27.403211, "longitude": 153.031153, "storeName": "Kedron", "address": "346-366 Gympie Road", "suburb": "Kedron", "postcode": "4031", "state": "QLD", "phone": "(07) 3069 1580", "distance": 19.074, "fax": "", "locationFeatures": null, "openingHours": {"mondayOpen": "09:00", "mondayClose": "21:00", "tuesdayOpen": "09:00", "tuesdayClose": "21:00", "wednesdayOpen": "09:00", "wednesdayClose": "21:00", "thursdayOpen": "09:00", "thursdayClose": "21:00", "fridayOpen": "09:00", "fridayClose": "21:00", "saturdayOpen": "09:00", "saturdayClose": "21:00", "sundayOpen": "09:00", "sundayClose": "18:00"}, "operationalInfo": {"storeManager": "JOCK HADJION", "areaRegion": "QLD2CB", "areaRegionMgr": "Kellianne Doyle", "regionZone": "QLD", "regionZoneMgr": "Mat Davey"}, "openingHoursExceptions": [], "isOpen": true, "openingDate": null, "closingDate": null, "cncEnabled": true, "cncStore": true}, {"locationID": 34256310, "brandID": 3, "storeID": 6483, "latitude": -27.570625, "longitude": 152.793671, "storeName": "Karalee", "address": "29-51 Cnr Junctoin And Essex Street", "suburb": "Karalee", "postcode": "4306", "state": "QLD", "phone": "(07) 3413 2580", "distance": 19.822, "fax": "", "locationFeatures": null, "openingHours": {"mondayOpen": "09:00", "mondayClose": "21:00", "tuesdayOpen": "09:00", "tuesdayClose": "21:00", "wednesdayOpen": "09:00", "wednesdayClose": "21:00", "thursdayOpen": "09:00", "thursdayClose": "21:00", "fridayOpen": "09:00", "fridayClose": "21:00", "saturdayOpen": "09:00", "saturdayClose": "21:00", "sundayOpen": "09:00", "sundayClose": "19:00"}, "operationalInfo": {"storeManager": "GLENN BENECKE", "areaRegion": "QLD8", "areaRegionMgr": "Konrad Kolmet (Secondment)", "regionZone": "QLD", "regionZoneMgr": "Mat Davey"}, "openingHoursExceptions": [], "isOpen": true, "openingDate": null, "closingDate": null, "cncEnabled": true, "cncStore": true}]