[{"locationID": 34255946, "brandID": 3, "storeID": 8363, "latitude": -27.297717, "longitude": 152.976595, "storeName": "Kensington Village", "address": "25-26 Kensington Way", "suburb": "Bray Park", "postcode": "4500", "state": "QLD", "phone": "(07) 3726 9695", "distance": 2.179, "fax": "", "locationFeatures": null, "openingHours": {"mondayOpen": "09:00", "mondayClose": "20:00", "tuesdayOpen": "09:00", "tuesdayClose": "20:00", "wednesdayOpen": "09:00", "wednesdayClose": "20:00", "thursdayOpen": "09:00", "thursdayClose": "21:00", "fridayOpen": "09:00", "fridayClose": "21:00", "saturdayOpen": "09:00", "saturdayClose": "21:00", "sundayOpen": "09:00", "sundayClose": "18:00"}, "operationalInfo": {"storeManager": "JAKE ALBERY", "areaRegion": "QLD7", "areaRegionMgr": "Kevin Gilbert", "regionZone": "QLD", "regionZoneMgr": "Mat Davey"}, "openingHoursExceptions": [], "isOpen": true, "openingDate": null, "closingDate": null, "cncEnabled": true, "cncStore": true}, {"locationID": 34256326, "brandID": 3, "storeID": 6639, "latitude": -27.306935, "longitude": 152.991057, "storeName": "Strathpine", "address": "295 Gympie Road", "suburb": "Strathpine", "postcode": "4500", "state": "QLD", "phone": "(07) 3490 4280", "distance": 3.705, "fax": "", "locationFeatures": null, "openingHours": {"mondayOpen": "09:00", "mondayClose": "19:00", "tuesdayOpen": "09:00", "tuesdayClose": "19:00", "wednesdayOpen": "09:00", "wednesdayClose": "19:00", "thursdayOpen": "09:00", "thursdayClose": "21:00", "fridayOpen": "09:00", "fridayClose": "20:00", "saturdayOpen": "09:00", "saturdayClose": "20:00", "sundayOpen": "09:00", "sundayClose": "18:00"}, "operationalInfo": {"storeManager": "AMANDA CORNELL", "areaRegion": "QLD7", "areaRegionMgr": "Kevin Gilbert", "regionZone": "QLD", "regionZoneMgr": "Mat Davey"}, "openingHoursExceptions": [], "isOpen": true, "openingDate": null, "closingDate": null, "cncEnabled": true, "cncStore": true}, {"locationID": 34255947, "brandID": 3, "storeID": 8364, "latitude": -27.317926, "longitude": 152.98707, "storeName": "Bhs Liquor Shop", "address": "22 Kremzow Road", "suburb": "Brendale", "postcode": "4500", "state": "QLD", "phone": "(07) 3726 9667", "distance": 4.131, "fax": "", "locationFeatures": null, "openingHours": {"mondayOpen": "10:00", "mondayClose": "19:00", "tuesdayOpen": "10:00", "tuesdayClose": "19:00", "wednesdayOpen": "10:00", "wednesdayClose": "19:00", "thursdayOpen": "10:00", "thursdayClose": "19:00", "fridayOpen": "10:00", "fridayClose": "19:00", "saturdayOpen": "10:00", "saturdayClose": "19:00", "sundayOpen": "10:00", "sundayClose": "17:00"}, "operationalInfo": {"storeManager": "", "areaRegion": "QLD7", "areaRegionMgr": "Kevin Gilbert", "regionZone": "QLD", "regionZoneMgr": "Mat Davey"}, "openingHoursExceptions": [], "isOpen": true, "openingDate": null, "closingDate": null, "cncEnabled": true, "cncStore": true}, {"locationID": 34256296, "brandID": 3, "storeID": 6296, "latitude": -27.272371, "longitude": 153.016245, "storeName": "Murrumba Downs", "address": "Corner Bruce Highway And Dohles Road", "suburb": "Murrumba Downs", "postcode": "4503", "state": "QLD", "phone": "(07) 3734 0851", "distance": 5.904, "fax": "", "locationFeatures": null, "openingHours": {"mondayOpen": "09:00", "mondayClose": "21:00", "tuesdayOpen": "09:00", "tuesdayClose": "21:00", "wednesdayOpen": "09:00", "wednesdayClose": "21:00", "thursdayOpen": "09:00", "thursdayClose": "21:00", "fridayOpen": "09:00", "fridayClose": "21:00", "saturdayOpen": "09:00", "saturdayClose": "21:00", "sundayOpen": "09:00", "sundayClose": "19:00"}, "operationalInfo": {"storeManager": "SARAH MORO", "areaRegion": "QLD7", "areaRegionMgr": "Kevin Gilbert", "regionZone": "QLD", "regionZoneMgr": "Mat Davey"}, "openingHoursExceptions": [], "isOpen": true, "openingDate": null, "closingDate": null, "cncEnabled": true, "cncStore": true}, {"locationID": 34256112, "brandID": 3, "storeID": 8624, "latitude": -27.244118, "longitude": 152.983183, "storeName": "Kallangur Village Cellars", "address": "Corner Ann Street And Marsden Road", "suburb": "Kallangur", "postcode": "4503", "state": "QLD", "phone": "(07) 3726 9665", "distance": 5.976, "fax": "", "locationFeatures": null, "openingHours": {"mondayOpen": "10:00", "mondayClose": "20:00", "tuesdayOpen": "10:00", "tuesdayClose": "20:00", "wednesdayOpen": "10:00", "wednesdayClose": "20:00", "thursdayOpen": "10:00", "thursdayClose": "20:00", "fridayOpen": "10:00", "fridayClose": "21:00", "saturdayOpen": "10:00", "saturdayClose": "21:00", "sundayOpen": "10:00", "sundayClose": "20:00"}, "operationalInfo": {"storeManager": "JANE MORGAN-HARRY", "areaRegion": "QLD7", "areaRegionMgr": "Kevin Gilbert", "regionZone": "QLD", "regionZoneMgr": "Mat Davey"}, "openingHoursExceptions": [], "isOpen": true, "openingDate": null, "closingDate": null, "cncEnabled": true, "cncStore": true}, {"locationID": 34255945, "brandID": 3, "storeID": 8362, "latitude": -27.323075, "longitude": 153.010091, "storeName": "Bonny View Tavern", "address": "Corner Gympie Road And Griffiths Street", "suburb": "Bald Hills", "postcode": "4036", "state": "QLD", "phone": "(07) 3726 9624", "distance": 6.02, "fax": "", "locationFeatures": null, "openingHours": {"mondayOpen": "10:00", "mondayClose": "20:00", "tuesdayOpen": "10:00", "tuesdayClose": "20:00", "wednesdayOpen": "10:00", "wednesdayClose": "20:00", "thursdayOpen": "10:00", "thursdayClose": "20:00", "fridayOpen": "10:00", "fridayClose": "21:00", "saturdayOpen": "10:00", "saturdayClose": "21:00", "sundayOpen": "10:00", "sundayClose": "19:00"}, "operationalInfo": {"storeManager": "MARGOT WILLIAMS", "areaRegion": "QLD7", "areaRegionMgr": "Kevin Gilbert", "regionZone": "QLD", "regionZoneMgr": "Mat Davey"}, "openingHoursExceptions": [], "isOpen": true, "openingDate": null, "closingDate": null, "cncEnabled": true, "cncStore": true}, {"locationID": 34256110, "brandID": 3, "storeID": 8622, "latitude": -27.250023, "longitude": 152.997044, "storeName": "Finnigans Chin Barn", "address": "Andrew Street", "suburb": "Kallangur", "postcode": "4503", "state": "QLD", "phone": "(07) 3726 9641", "distance": 6.065, "fax": "", "locationFeatures": null, "openingHours": {"mondayOpen": "10:00", "mondayClose": "20:00", "tuesdayOpen": "10:00", "tuesdayClose": "20:00", "wednesdayOpen": "10:00", "wednesdayClose": "20:00", "thursdayOpen": "10:00", "thursdayClose": "21:00", "fridayOpen": "10:00", "fridayClose": "21:00", "saturdayOpen": "10:00", "saturdayClose": "21:00", "sundayOpen": "10:00", "sundayClose": "20:00"}, "operationalInfo": {"storeManager": "MIKAELA EDMONDSTONE", "areaRegion": "QLD7", "areaRegionMgr": "Kevin Gilbert", "regionZone": "QLD", "regionZoneMgr": "Mat Davey"}, "openingHoursExceptions": [], "isOpen": true, "openingDate": null, "closingDate": null, "cncEnabled": true, "cncStore": true}, {"locationID": 34256419, "brandID": 3, "storeID": 6598, "latitude": -27.346669, "longitude": 152.968633, "storeName": "Albany Creek", "address": "700 Albany Creek Road", "suburb": "Albany Creek", "postcode": "4035", "state": "QLD", "phone": "(07) 3734 0855", "distance": 6.213, "fax": "", "locationFeatures": null, "openingHours": {"mondayOpen": "09:00", "mondayClose": "20:00", "tuesdayOpen": "09:00", "tuesdayClose": "20:00", "wednesdayOpen": "09:00", "wednesdayClose": "20:00", "thursdayOpen": "09:00", "thursdayClose": "20:00", "fridayOpen": "09:00", "fridayClose": "20:00", "saturdayOpen": "09:00", "saturdayClose": "20:00", "sundayOpen": "09:00", "sundayClose": "18:00"}, "operationalInfo": {"storeManager": "TAMARA GORTMANS", "areaRegion": "QLD7", "areaRegionMgr": "Kevin Gilbert", "regionZone": "QLD", "regionZoneMgr": "Mat Davey"}, "openingHoursExceptions": [], "isOpen": true, "openingDate": null, "closingDate": null, "cncEnabled": true, "cncStore": true}, {"locationID": 34256313, "brandID": 3, "storeID": 6489, "latitude": -27.24327, "longitude": 153.018817, "storeName": "North Lakes", "address": "Corner Anzac Ave And North Lakes Drive", "suburb": "North Lakes", "postcode": "4509", "state": "QLD", "phone": "(07) 3491 5780", "distance": 7.88, "fax": "", "locationFeatures": null, "openingHours": {"mondayOpen": "09:00", "mondayClose": "21:00", "tuesdayOpen": "09:00", "tuesdayClose": "21:00", "wednesdayOpen": "09:00", "wednesdayClose": "21:00", "thursdayOpen": "09:00", "thursdayClose": "21:00", "fridayOpen": "09:00", "fridayClose": "21:00", "saturdayOpen": "09:00", "saturdayClose": "21:00", "sundayOpen": "09:00", "sundayClose": "18:00"}, "operationalInfo": {"storeManager": "JESSICA SEAR-HALL", "areaRegion": "QLD7", "areaRegionMgr": "Kevin Gilbert", "regionZone": "QLD", "regionZoneMgr": "Mat Davey"}, "openingHoursExceptions": [], "isOpen": true, "openingDate": null, "closingDate": null, "cncEnabled": true, "cncStore": true}, {"locationID": 34256318, "brandID": 3, "storeID": 6621, "latitude": -27.36152, "longitude": 153.013022, "storeName": "Aspley", "address": "59 Albany Creek", "suburb": "Aspley", "postcode": "4034", "state": "QLD", "phone": "(07) 3726 9602", "distance": 9.293, "fax": "", "locationFeatures": null, "openingHours": {"mondayOpen": "09:00", "mondayClose": "21:00", "tuesdayOpen": "09:00", "tuesdayClose": "21:00", "wednesdayOpen": "09:00", "wednesdayClose": "21:00", "thursdayOpen": "09:00", "thursdayClose": "21:00", "fridayOpen": "09:00", "fridayClose": "21:00", "saturdayOpen": "09:00", "saturdayClose": "21:00", "sundayOpen": "09:00", "sundayClose": "18:00"}, "operationalInfo": {"storeManager": "CHRISTY CRUICKSHANK", "areaRegion": "QLD7", "areaRegionMgr": "Kevin Gilbert", "regionZone": "QLD", "regionZoneMgr": "Mat Davey"}, "openingHoursExceptions": [], "isOpen": true, "openingDate": null, "closingDate": null, "cncEnabled": true, "cncStore": true}, {"locationID": 34256403, "brandID": 3, "storeID": 6531, "latitude": -27.341742, "longitude": 153.042584, "storeName": "Taigum Village", "address": "320 Roghan Road", "suburb": "Taigum", "postcode": "4018", "state": "QLD", "phone": "(07) 3624 3080", "distance": 9.481, "fax": "", "locationFeatures": null, "openingHours": {"mondayOpen": "09:00", "mondayClose": "21:00", "tuesdayOpen": "09:00", "tuesdayClose": "21:00", "wednesdayOpen": "09:00", "wednesdayClose": "21:00", "thursdayOpen": "09:00", "thursdayClose": "21:00", "fridayOpen": "09:00", "fridayClose": "21:00", "saturdayOpen": "09:00", "saturdayClose": "21:00", "sundayOpen": "09:00", "sundayClose": "19:00"}, "operationalInfo": {"storeManager": "SAROJ BUDHATHOKI", "areaRegion": "QLD7", "areaRegionMgr": "Kevin Gilbert", "regionZone": "QLD", "regionZoneMgr": "Mat Davey"}, "openingHoursExceptions": [], "isOpen": true, "openingDate": null, "closingDate": null, "cncEnabled": true, "cncStore": true}, {"locationID": 34255944, "brandID": 3, "storeID": 8343, "latitude": -27.30612, "longitude": 153.063044, "storeName": "Brighton Barn", "address": "196 Brighton Terrace", "suburb": "Sandgate", "postcode": "4017", "state": "QLD", "phone": "(07) 3726 9646", "distance": 9.591, "fax": "", "locationFeatures": null, "openingHours": {"mondayOpen": "10:00", "mondayClose": "20:00", "tuesdayOpen": "10:00", "tuesdayClose": "20:00", "wednesdayOpen": "10:00", "wednesdayClose": "20:00", "thursdayOpen": "10:00", "thursdayClose": "21:00", "fridayOpen": "10:00", "fridayClose": "21:00", "saturdayOpen": "10:00", "saturdayClose": "21:00", "sundayOpen": "10:00", "sundayClose": "20:00"}, "operationalInfo": {"storeManager": "STEVEN HOBBS", "areaRegion": "QLD7", "areaRegionMgr": "Kevin Gilbert", "regionZone": "QLD", "regionZoneMgr": "Mat Davey"}, "openingHoursExceptions": [], "isOpen": true, "openingDate": null, "closingDate": null, "cncEnabled": true, "cncStore": true}, {"locationID": 34256119, "brandID": 3, "storeID": 2833, "latitude": -27.23355, "longitude": 153.036288, "storeName": "Mango Hill", "address": "67 Capestone Blvd", "suburb": "Mango Hill", "postcode": "4509", "state": "QLD", "phone": "(07) 3734 0890", "distance": 9.708, "fax": "", "locationFeatures": null, "openingHours": {"mondayOpen": "09:00", "mondayClose": "21:00", "tuesdayOpen": "09:00", "tuesdayClose": "21:00", "wednesdayOpen": "09:00", "wednesdayClose": "21:00", "thursdayOpen": "09:00", "thursdayClose": "21:00", "fridayOpen": "09:00", "fridayClose": "21:00", "saturdayOpen": "09:00", "saturdayClose": "20:00", "sundayOpen": "09:00", "sundayClose": "18:00"}, "operationalInfo": {"storeManager": "ALICIA HACKETT", "areaRegion": "QLD7", "areaRegionMgr": "Kevin Gilbert", "regionZone": "QLD", "regionZoneMgr": "Mat Davey"}, "openingHoursExceptions": [], "isOpen": true, "openingDate": null, "closingDate": null, "cncEnabled": true, "cncStore": true}, {"locationID": 34256111, "brandID": 3, "storeID": 8623, "latitude": -27.202585, "longitude": 152.958874, "storeName": "Narangba Liquor Barn", "address": "36 Main Street", "suburb": "Narangba", "postcode": "4504", "state": "QLD", "phone": "(07) 3726 9664", "distance": 9.989, "fax": "", "locationFeatures": null, "openingHours": {"mondayOpen": "10:00", "mondayClose": "20:00", "tuesdayOpen": "10:00", "tuesdayClose": "20:00", "wednesdayOpen": "10:00", "wednesdayClose": "20:00", "thursdayOpen": "10:00", "thursdayClose": "20:00", "fridayOpen": "10:00", "fridayClose": "21:00", "saturdayOpen": "10:00", "saturdayClose": "21:00", "sundayOpen": "10:00", "sundayClose": "20:00"}, "operationalInfo": {"storeManager": "RENEE SIMPSON", "areaRegion": "QLD6", "areaRegionMgr": "Lisa Hartnett", "regionZone": "QLD", "regionZoneMgr": "Mat Davey"}, "openingHoursExceptions": [], "isOpen": true, "openingDate": null, "closingDate": null, "cncEnabled": true, "cncStore": true}, {"locationID": 34256242, "brandID": 3, "storeID": 6231, "latitude": -27.350507, "longitude": 153.048723, "storeName": "Taigum Barn", "address": "217 Beams Road", "suburb": "Taigum", "postcode": "4018", "state": "QLD", "phone": "(07) 3726 9670", "distance": 10.485, "fax": "", "locationFeatures": null, "openingHours": {"mondayOpen": "10:00", "mondayClose": "20:00", "tuesdayOpen": "10:00", "tuesdayClose": "20:00", "wednesdayOpen": "10:00", "wednesdayClose": "20:00", "thursdayOpen": "10:00", "thursdayClose": "21:00", "fridayOpen": "10:00", "fridayClose": "21:00", "saturdayOpen": "10:00", "saturdayClose": "21:00", "sundayOpen": "10:00", "sundayClose": "20:00"}, "operationalInfo": {"storeManager": "DYLAN LITTLE", "areaRegion": "QLD7", "areaRegionMgr": "Kevin Gilbert", "regionZone": "QLD", "regionZoneMgr": "Mat Davey"}, "openingHoursExceptions": [], "isOpen": true, "openingDate": null, "closingDate": null, "cncEnabled": true, "cncStore": true}, {"locationID": 34256011, "brandID": 3, "storeID": 8375, "latitude": -27.39519, "longitude": 152.997682, "storeName": "Everton Park Hotel Barn", "address": "101 Flockton Street", "suburb": "Everton Park", "postcode": "4053", "state": "QLD", "phone": "(07) 3726 9626", "distance": 12.09, "fax": "", "locationFeatures": null, "openingHours": {"mondayOpen": "10:00", "mondayClose": "20:00", "tuesdayOpen": "10:00", "tuesdayClose": "20:00", "wednesdayOpen": "10:00", "wednesdayClose": "20:00", "thursdayOpen": "10:00", "thursdayClose": "21:00", "fridayOpen": "10:00", "fridayClose": "21:00", "saturdayOpen": "10:00", "saturdayClose": "21:00", "sundayOpen": "10:00", "sundayClose": "19:00"}, "operationalInfo": {"storeManager": "ANTHONY SOMMERS", "areaRegion": "QLD2CB", "areaRegionMgr": "Kellianne Doyle", "regionZone": "QLD", "regionZoneMgr": "Mat Davey"}, "openingHoursExceptions": [], "isOpen": true, "openingDate": null, "closingDate": null, "cncEnabled": true, "cncStore": true}, {"locationID": 34256299, "brandID": 3, "storeID": 6324, "latitude": -27.40879, "longitude": 152.979984, "storeName": "Brookside", "address": "Osborne Road", "suburb": "Mitchelton", "postcode": "4053", "state": "QLD", "phone": "(07) 3513 9280", "distance": 13.176, "fax": "", "locationFeatures": null, "openingHours": {"mondayOpen": "09:00", "mondayClose": "21:00", "tuesdayOpen": "09:00", "tuesdayClose": "21:00", "wednesdayOpen": "09:00", "wednesdayClose": "21:00", "thursdayOpen": "09:00", "thursdayClose": "21:00", "fridayOpen": "09:00", "fridayClose": "21:00", "saturdayOpen": "09:00", "saturdayClose": "20:00", "sundayOpen": "09:00", "sundayClose": "18:00"}, "operationalInfo": {"storeManager": "TORY BUTEUX", "areaRegion": "QLD2CB", "areaRegionMgr": "Kellianne Doyle", "regionZone": "QLD", "regionZoneMgr": "Mat Davey"}, "openingHoursExceptions": [], "isOpen": true, "openingDate": null, "closingDate": null, "cncEnabled": true, "cncStore": true}, {"locationID": 34256295, "brandID": 3, "storeID": 6294, "latitude": -27.389259, "longitude": 153.049179, "storeName": "Wavell Heights", "address": "159-167 Hamilton Road", "suburb": "Wavell Heights", "postcode": "4012", "state": "QLD", "phone": "(07) 3734 0850", "distance": 13.6, "fax": "", "locationFeatures": null, "openingHours": {"mondayOpen": "10:00", "mondayClose": "20:00", "tuesdayOpen": "10:00", "tuesdayClose": "20:00", "wednesdayOpen": "10:00", "wednesdayClose": "20:00", "thursdayOpen": "10:00", "thursdayClose": "21:00", "fridayOpen": "10:00", "fridayClose": "21:00", "saturdayOpen": "10:00", "saturdayClose": "21:00", "sundayOpen": "10:00", "sundayClose": "20:00"}, "operationalInfo": {"storeManager": "IVAYLO NEDYALKOV", "areaRegion": "QLD2CB", "areaRegionMgr": "Kellianne Doyle", "regionZone": "QLD", "regionZoneMgr": "Mat Davey"}, "openingHoursExceptions": [], "isOpen": true, "openingDate": null, "closingDate": null, "cncEnabled": true, "cncStore": true}, {"locationID": 34256074, "brandID": 3, "storeID": 6004, "latitude": -27.403211, "longitude": 153.031153, "storeName": "Kedron", "address": "346-366 Gympie Road", "suburb": "Kedron", "postcode": "4031", "state": "QLD", "phone": "(07) 3069 1580", "distance": 14.062, "fax": "", "locationFeatures": null, "openingHours": {"mondayOpen": "09:00", "mondayClose": "21:00", "tuesdayOpen": "09:00", "tuesdayClose": "21:00", "wednesdayOpen": "09:00", "wednesdayClose": "21:00", "thursdayOpen": "09:00", "thursdayClose": "21:00", "fridayOpen": "09:00", "fridayClose": "21:00", "saturdayOpen": "09:00", "saturdayClose": "21:00", "sundayOpen": "09:00", "sundayClose": "18:00"}, "operationalInfo": {"storeManager": "JOCK HADJION", "areaRegion": "QLD2CB", "areaRegionMgr": "Kellianne Doyle", "regionZone": "QLD", "regionZoneMgr": "Mat Davey"}, "openingHoursExceptions": [], "isOpen": true, "openingDate": null, "closingDate": null, "cncEnabled": true, "cncStore": true}, {"locationID": 34256294, "brandID": 3, "storeID": 6293, "latitude": -27.374822, "longitude": 153.077825, "storeName": "Banyo", "address": "299 Saint Vincents Road", "suburb": "Banyo", "postcode": "4014", "state": "QLD", "phone": "(07) 3726 9649", "distance": 14.119, "fax": "", "locationFeatures": null, "openingHours": {"mondayOpen": "09:00", "mondayClose": "20:00", "tuesdayOpen": "09:00", "tuesdayClose": "20:00", "wednesdayOpen": "09:00", "wednesdayClose": "20:00", "thursdayOpen": "09:00", "thursdayClose": "21:00", "fridayOpen": "09:00", "fridayClose": "21:00", "saturdayOpen": "09:00", "saturdayClose": "21:00", "sundayOpen": "09:00", "sundayClose": "20:00"}, "operationalInfo": {"storeManager": "KIRSTY HALL", "areaRegion": "QLD7", "areaRegionMgr": "Kevin Gilbert", "regionZone": "QLD", "regionZoneMgr": "Mat Davey"}, "openingHoursExceptions": [], "isOpen": true, "openingDate": null, "closingDate": null, "cncEnabled": true, "cncStore": true}, {"locationID": 34256157, "brandID": 3, "storeID": 6089, "latitude": -27.16263, "longitude": 152.95814, "storeName": "Burpengary Station", "address": "9-11 Burpengary Road", "suburb": "Burpengary", "postcode": "4505", "state": "QLD", "phone": "(07) 3734 0887", "distance": 14.425, "fax": "", "locationFeatures": null, "openingHours": {"mondayOpen": "09:00", "mondayClose": "20:00", "tuesdayOpen": "09:00", "tuesdayClose": "20:00", "wednesdayOpen": "09:00", "wednesdayClose": "20:00", "thursdayOpen": "09:00", "thursdayClose": "21:00", "fridayOpen": "09:00", "fridayClose": "21:00", "saturdayOpen": "09:00", "saturdayClose": "21:00", "sundayOpen": "09:00", "sundayClose": "19:00"}, "operationalInfo": {"storeManager": "JODY BRABON", "areaRegion": "QLD6", "areaRegionMgr": "Lisa Hartnett", "regionZone": "QLD", "regionZoneMgr": "Mat Davey"}, "openingHoursExceptions": [], "isOpen": true, "openingDate": null, "closingDate": null, "cncEnabled": true, "cncStore": true}, {"locationID": 34256113, "brandID": 3, "storeID": 8626, "latitude": -27.160815, "longitude": 152.935417, "storeName": "Woodpecker Bottleshop", "address": "Corner Rowley Road And Facer Road", "suburb": "Burpengary", "postcode": "4505", "state": "QLD", "phone": "(07) 3726 9673", "distance": 14.686, "fax": "", "locationFeatures": null, "openingHours": {"mondayOpen": "10:00", "mondayClose": "19:00", "tuesdayOpen": "10:00", "tuesdayClose": "19:00", "wednesdayOpen": "10:00", "wednesdayClose": "19:00", "thursdayOpen": "10:00", "thursdayClose": "19:00", "fridayOpen": "10:00", "fridayClose": "20:00", "saturdayOpen": "10:00", "saturdayClose": "20:00", "sundayOpen": "10:00", "sundayClose": "18:00"}, "operationalInfo": {"storeManager": "KYLIE DIAMOND", "areaRegion": "QLD6", "areaRegionMgr": "Lisa Hartnett", "regionZone": "QLD", "regionZoneMgr": "Mat Davey"}, "openingHoursExceptions": [], "isOpen": true, "openingDate": null, "closingDate": null, "cncEnabled": true, "cncStore": true}, {"locationID": 34256320, "brandID": 3, "storeID": 6623, "latitude": -27.220183, "longitude": 153.098217, "storeName": "Redcliffe", "address": "Corner Ashmole Road And Klingner Road", "suburb": "Redcliffe", "postcode": "4020", "state": "QLD", "phone": "(07) 3480 3180", "distance": 14.821, "fax": "", "locationFeatures": null, "openingHours": {"mondayOpen": "09:00", "mondayClose": "21:00", "tuesdayOpen": "09:00", "tuesdayClose": "21:00", "wednesdayOpen": "09:00", "wednesdayClose": "21:00", "thursdayOpen": "09:00", "thursdayClose": "21:00", "fridayOpen": "09:00", "fridayClose": "21:00", "saturdayOpen": "09:00", "saturdayClose": "21:00", "sundayOpen": "09:00", "sundayClose": "19:00"}, "operationalInfo": {"storeManager": "CONRAD SOO CHOON", "areaRegion": "QLD7", "areaRegionMgr": "Kevin Gilbert", "regionZone": "QLD", "regionZoneMgr": "Mat Davey"}, "openingHoursExceptions": [], "isOpen": true, "openingDate": null, "closingDate": null, "cncEnabled": true, "cncStore": true}, {"locationID": 34255941, "brandID": 3, "storeID": 8339, "latitude": -27.422718, "longitude": 152.990481, "storeName": "Enoggera", "address": "318 Wardell Street", "suburb": "Enoggera", "postcode": "4051", "state": "QLD", "phone": "(07) 3734 0868", "distance": 14.873, "fax": "", "locationFeatures": null, "openingHours": {"mondayOpen": "09:00", "mondayClose": "20:00", "tuesdayOpen": "09:00", "tuesdayClose": "20:00", "wednesdayOpen": "09:00", "wednesdayClose": "20:00", "thursdayOpen": "09:00", "thursdayClose": "21:00", "fridayOpen": "09:00", "fridayClose": "21:00", "saturdayOpen": "09:00", "saturdayClose": "21:00", "sundayOpen": "09:00", "sundayClose": "19:00"}, "operationalInfo": {"storeManager": "JASON MARCH", "areaRegion": "QLD2CB", "areaRegionMgr": "Kellianne Doyle", "regionZone": "QLD", "regionZoneMgr": "Mat Davey"}, "openingHoursExceptions": [], "isOpen": true, "openingDate": null, "closingDate": null, "cncEnabled": true, "cncStore": true}, {"locationID": 34256408, "brandID": 3, "storeID": 6537, "latitude": -27.22939, "longitude": 153.106177, "storeName": "Redcliffe (anzac Ave)", "address": "82-98 Anzac Ave", "suburb": "Redcliffe", "postcode": "4020", "state": "QLD", "phone": "(07) 3726 9666", "distance": 14.889, "fax": "", "locationFeatures": null, "openingHours": {"mondayOpen": "09:00", "mondayClose": "20:00", "tuesdayOpen": "09:00", "tuesdayClose": "20:00", "wednesdayOpen": "09:00", "wednesdayClose": "20:00", "thursdayOpen": "09:00", "thursdayClose": "21:00", "fridayOpen": "09:00", "fridayClose": "21:00", "saturdayOpen": "09:00", "saturdayClose": "21:00", "sundayOpen": "09:00", "sundayClose": "19:00"}, "operationalInfo": {"storeManager": "GRANT PRYOR", "areaRegion": "QLD7", "areaRegionMgr": "Kevin Gilbert", "regionZone": "QLD", "regionZoneMgr": "Mat Davey"}, "openingHoursExceptions": [], "isOpen": true, "openingDate": null, "closingDate": null, "cncEnabled": true, "cncStore": true}, {"locationID": 34256306, "brandID": 3, "storeID": 6472, "latitude": -27.424107, "longitude": 152.999613, "storeName": "Alderley", "address": "34 South Pine Road", "suburb": "Alderley", "postcode": "4051", "state": "QLD", "phone": "(07) 3550 2580", "distance": 15.213, "fax": "", "locationFeatures": null, "openingHours": {"mondayOpen": "09:00", "mondayClose": "21:00", "tuesdayOpen": "09:00", "tuesdayClose": "21:00", "wednesdayOpen": "09:00", "wednesdayClose": "21:00", "thursdayOpen": "09:00", "thursdayClose": "21:00", "fridayOpen": "09:00", "fridayClose": "21:00", "saturdayOpen": "09:00", "saturdayClose": "21:00", "sundayOpen": "09:00", "sundayClose": "18:00"}, "operationalInfo": {"storeManager": "LAURENCE RUDDLE", "areaRegion": "QLD2CB", "areaRegionMgr": "Kellianne Doyle", "regionZone": "QLD", "regionZoneMgr": "Mat Davey"}, "openingHoursExceptions": [], "isOpen": true, "openingDate": null, "closingDate": null, "cncEnabled": true, "cncStore": true}, {"locationID": 34256234, "brandID": 3, "storeID": 6174, "latitude": -27.153418, "longitude": 152.975489, "storeName": "Burpengary", "address": "Corner Station Street And Progress Street", "suburb": "Burpengary", "postcode": "4505", "state": "QLD", "phone": "(07) 3734 0845", "distance": 15.569, "fax": "", "locationFeatures": null, "openingHours": {"mondayOpen": "09:00", "mondayClose": "20:00", "tuesdayOpen": "09:00", "tuesdayClose": "20:00", "wednesdayOpen": "09:00", "wednesdayClose": "20:00", "thursdayOpen": "09:00", "thursdayClose": "20:00", "fridayOpen": "09:00", "fridayClose": "21:00", "saturdayOpen": "09:00", "saturdayClose": "21:00", "sundayOpen": "09:00", "sundayClose": "19:00"}, "operationalInfo": {"storeManager": "LOUISE BOWDEN", "areaRegion": "QLD6", "areaRegionMgr": "Lisa Hartnett", "regionZone": "QLD", "regionZoneMgr": "Mat Davey"}, "openingHoursExceptions": [], "isOpen": true, "openingDate": null, "closingDate": null, "cncEnabled": true, "cncStore": true}, {"locationID": 34256160, "brandID": 3, "storeID": 6094, "latitude": -27.42253, "longitude": 153.034156, "storeName": "Lutwyche", "address": "543 Lutwyche Rd & Lowerson Rd", "suburb": "Lutwyche", "postcode": "4030", "state": "QLD", "phone": "(07) 3922 8480", "distance": 16.09, "fax": "", "locationFeatures": null, "openingHours": {"mondayOpen": "09:00", "mondayClose": "21:00", "tuesdayOpen": "09:00", "tuesdayClose": "21:00", "wednesdayOpen": "09:00", "wednesdayClose": "21:00", "thursdayOpen": "09:00", "thursdayClose": "21:00", "fridayOpen": "09:00", "fridayClose": "21:00", "saturdayOpen": "09:00", "saturdayClose": "21:00", "sundayOpen": "09:00", "sundayClose": "18:00"}, "operationalInfo": {"storeManager": "MICHELLE MCGRATH", "areaRegion": "QLD2CB", "areaRegionMgr": "Kellianne Doyle", "regionZone": "QLD", "regionZoneMgr": "Mat Davey"}, "openingHoursExceptions": [], "isOpen": true, "openingDate": null, "closingDate": null, "cncEnabled": true, "cncStore": true}, {"locationID": 34256331, "brandID": 3, "storeID": 6649, "latitude": -27.445695, "longitude": 152.952585, "storeName": "The Gap", "address": "992 Water Works Road", "suburb": "The Gap", "postcode": "4061", "state": "QLD", "phone": "(07) 3734 0859", "distance": 17.063, "fax": "", "locationFeatures": null, "openingHours": {"mondayOpen": "09:00", "mondayClose": "20:00", "tuesdayOpen": "09:00", "tuesdayClose": "20:00", "wednesdayOpen": "09:00", "wednesdayClose": "20:00", "thursdayOpen": "09:00", "thursdayClose": "21:00", "fridayOpen": "09:00", "fridayClose": "21:00", "saturdayOpen": "09:00", "saturdayClose": "20:00", "sundayOpen": "09:00", "sundayClose": "18:00"}, "operationalInfo": {"storeManager": "TALJINDER SINGH", "areaRegion": "QLD2CB", "areaRegionMgr": "Kellianne Doyle", "regionZone": "QLD", "regionZoneMgr": "Mat Davey"}, "openingHoursExceptions": [], "isOpen": true, "openingDate": null, "closingDate": null, "cncEnabled": true, "cncStore": true}, {"locationID": 34256227, "brandID": 3, "storeID": 6146, "latitude": -27.437231, "longitude": 153.023113, "storeName": "Windsor (qld)", "address": "142 Newmarket Road", "suburb": "Windsor", "postcode": "4030", "state": "QLD", "phone": "(07) 3734 0844", "distance": 17.223, "fax": "", "locationFeatures": null, "openingHours": {"mondayOpen": "09:00", "mondayClose": "20:00", "tuesdayOpen": "09:00", "tuesdayClose": "20:00", "wednesdayOpen": "09:00", "wednesdayClose": "21:00", "thursdayOpen": "09:00", "thursdayClose": "21:00", "fridayOpen": "09:00", "fridayClose": "21:00", "saturdayOpen": "09:00", "saturdayClose": "21:00", "sundayOpen": "10:00", "sundayClose": "20:00"}, "operationalInfo": {"storeManager": "TIMOTHY HALES", "areaRegion": "QLD2CB", "areaRegionMgr": "Kellianne Doyle", "regionZone": "QLD", "regionZoneMgr": "Mat Davey"}, "openingHoursExceptions": [], "isOpen": true, "openingDate": null, "closingDate": null, "cncEnabled": true, "cncStore": true}, {"locationID": 34256177, "brandID": 3, "storeID": 8628, "latitude": -27.138681, "longitude": 152.98201, "storeName": "Burpengary Village Cellars", "address": "Corner Buckley Road And Uhlman Road", "suburb": "Burpengary", "postcode": "4505", "state": "QLD", "phone": "(07) 3726 9678", "distance": 17.269, "fax": "", "locationFeatures": null, "openingHours": {"mondayOpen": "10:00", "mondayClose": "19:00", "tuesdayOpen": "10:00", "tuesdayClose": "19:00", "wednesdayOpen": "10:00", "wednesdayClose": "20:00", "thursdayOpen": "10:00", "thursdayClose": "20:00", "fridayOpen": "10:00", "fridayClose": "21:00", "saturdayOpen": "10:00", "saturdayClose": "20:00", "sundayOpen": "10:00", "sundayClose": "19:00"}, "operationalInfo": {"storeManager": "KIEREN HACKETT", "areaRegion": "QLD6", "areaRegionMgr": "Lisa Hartnett", "regionZone": "QLD", "regionZoneMgr": "Mat Davey"}, "openingHoursExceptions": [], "isOpen": true, "openingDate": null, "closingDate": null, "cncEnabled": true, "cncStore": true}, {"locationID": 34256178, "brandID": 3, "storeID": 8629, "latitude": -27.136475, "longitude": 152.936198, "storeName": "Excelsior Park Cellars", "address": "Corner Oakey Flat Road And Nairn Road", "suburb": "Moorina", "postcode": "4506", "state": "QLD", "phone": "(07) 3726 9631", "distance": 17.377, "fax": "", "locationFeatures": null, "openingHours": {"mondayOpen": "10:00", "mondayClose": "19:00", "tuesdayOpen": "10:00", "tuesdayClose": "19:00", "wednesdayOpen": "10:00", "wednesdayClose": "19:00", "thursdayOpen": "10:00", "thursdayClose": "20:00", "fridayOpen": "10:00", "fridayClose": "20:00", "saturdayOpen": "10:00", "saturdayClose": "20:00", "sundayOpen": "10:00", "sundayClose": "19:00"}, "operationalInfo": {"storeManager": "CHANTELLE HOSKING", "areaRegion": "QLD6", "areaRegionMgr": "Lisa Hartnett", "regionZone": "QLD", "regionZoneMgr": "Mat Davey"}, "openingHoursExceptions": [], "isOpen": true, "openingDate": null, "closingDate": null, "cncEnabled": true, "cncStore": true}, {"locationID": 34256337, "brandID": 3, "storeID": 6666, "latitude": -27.434076, "longitude": 153.065449, "storeName": "Ascot", "address": "Corner Racecourse Street And Dobson Street", "suburb": "Ascot", "postcode": "4007", "state": "QLD", "phone": "(07) 2105 0580", "distance": 18.5, "fax": "", "locationFeatures": null, "openingHours": {"mondayOpen": "09:00", "mondayClose": "21:00", "tuesdayOpen": "09:00", "tuesdayClose": "21:00", "wednesdayOpen": "09:00", "wednesdayClose": "21:00", "thursdayOpen": "09:00", "thursdayClose": "21:00", "fridayOpen": "09:00", "fridayClose": "21:00", "saturdayOpen": "09:00", "saturdayClose": "21:00", "sundayOpen": "10:00", "sundayClose": "19:00"}, "operationalInfo": {"storeManager": "STEPHEN HOHIPA", "areaRegion": "QLD2CB", "areaRegionMgr": "Kellianne Doyle", "regionZone": "QLD", "regionZoneMgr": "Mat Davey"}, "openingHoursExceptions": [], "isOpen": true, "openingDate": null, "closingDate": null, "cncEnabled": true, "cncStore": true}, {"locationID": 34256241, "brandID": 3, "storeID": 6222, "latitude": -27.455153, "longitude": 153.006767, "storeName": "Red Hill", "address": "152 Musgrave Road", "suburb": "Red Hill", "postcode": "4059", "state": "QLD", "phone": "(07) 3734 0849", "distance": 18.706, "fax": "", "locationFeatures": null, "openingHours": {"mondayOpen": "11:00", "mondayClose": "20:00", "tuesdayOpen": "11:00", "tuesdayClose": "20:00", "wednesdayOpen": "11:00", "wednesdayClose": "20:00", "thursdayOpen": "11:00", "thursdayClose": "21:00", "fridayOpen": "10:00", "fridayClose": "21:00", "saturdayOpen": "10:00", "saturdayClose": "21:00", "sundayOpen": "11:00", "sundayClose": "20:00"}, "operationalInfo": {"storeManager": "DONNA GRAHAM", "areaRegion": "QLD2CB", "areaRegionMgr": "Kellianne Doyle", "regionZone": "QLD", "regionZoneMgr": "Mat Davey"}, "openingHoursExceptions": [], "isOpen": true, "openingDate": null, "closingDate": null, "cncEnabled": true, "cncStore": true}, {"locationID": 34256336, "brandID": 3, "storeID": 6664, "latitude": -27.458331, "longitude": 152.995581, "storeName": "Paddington", "address": "147 Latrobe Terrace", "suburb": "Paddington", "postcode": "4064", "state": "QLD", "phone": "(07) 3734 0862", "distance": 18.837, "fax": "", "locationFeatures": null, "openingHours": {"mondayOpen": "10:00", "mondayClose": "21:00", "tuesdayOpen": "10:00", "tuesdayClose": "21:00", "wednesdayOpen": "10:00", "wednesdayClose": "21:00", "thursdayOpen": "10:00", "thursdayClose": "21:00", "fridayOpen": "10:00", "fridayClose": "21:00", "saturdayOpen": "10:00", "saturdayClose": "21:00", "sundayOpen": "10:00", "sundayClose": "21:00"}, "operationalInfo": {"storeManager": "MICHAEL EXLEY", "areaRegion": "QLD2CB", "areaRegionMgr": "Kellianne Doyle", "regionZone": "QLD", "regionZoneMgr": "Mat Davey"}, "openingHoursExceptions": [], "isOpen": true, "openingDate": null, "closingDate": null, "cncEnabled": true, "cncStore": true}, {"locationID": 34256109, "brandID": 3, "storeID": 8621, "latitude": -27.114955, "longitude": 152.963556, "storeName": "Glenwood Drive  Cellars", "address": "Lot 62 Glenwood Drive", "suburb": "Morayfield", "postcode": "4506", "state": "QLD", "phone": "(07) 3726 9622", "distance": 19.742, "fax": "", "locationFeatures": null, "openingHours": {"mondayOpen": "10:00", "mondayClose": "19:00", "tuesdayOpen": "10:00", "tuesdayClose": "19:00", "wednesdayOpen": "10:00", "wednesdayClose": "20:00", "thursdayOpen": "10:00", "thursdayClose": "20:00", "fridayOpen": "10:00", "fridayClose": "21:00", "saturdayOpen": "10:00", "saturdayClose": "20:00", "sundayOpen": "10:00", "sundayClose": "19:00"}, "operationalInfo": {"storeManager": "KOSTA DOUEIHI", "areaRegion": "QLD6", "areaRegionMgr": "Lisa Hartnett", "regionZone": "QLD", "regionZoneMgr": "Mat Davey"}, "openingHoursExceptions": [], "isOpen": true, "openingDate": null, "closingDate": null, "cncEnabled": true, "cncStore": true}]