[{"locationID": 34256243, "brandID": 3, "storeID": 6242, "latitude": -28.045893, "longitude": 153.408209, "storeName": "Mermaid Waters", "address": "Corner Bermuda Street And Markeri Street", "suburb": "Mermaid Waters", "postcode": "4218", "state": "QLD", "phone": "(07) 3726 9680", "distance": 0.269, "fax": "", "locationFeatures": null, "openingHours": {"mondayOpen": "09:00", "mondayClose": "20:00", "tuesdayOpen": "09:00", "tuesdayClose": "20:00", "wednesdayOpen": "09:00", "wednesdayClose": "20:00", "thursdayOpen": "09:00", "thursdayClose": "21:00", "fridayOpen": "09:00", "fridayClose": "21:00", "saturdayOpen": "09:00", "saturdayClose": "20:00", "sundayOpen": "09:00", "sundayClose": "19:00"}, "operationalInfo": {"storeManager": "JAKE O'NEILL", "areaRegion": "QNS5", "areaRegionMgr": "Luke Pope (Secondment)", "regionZone": "QNS", "regionZoneMgr": "Adam Hill"}, "openingHoursExceptions": [], "isOpen": true, "openingDate": null, "closingDate": null, "cncEnabled": true, "cncStore": true}, {"locationID": 34256304, "brandID": 3, "storeID": 6469, "latitude": -28.036258, "longitude": 153.427416, "storeName": "Pacific Fair", "address": "Hooker Boulevard", "suburb": "Broadbeach", "postcode": "4218", "state": "QLD", "phone": "(07) 5504 3480", "distance": 1.813, "fax": "", "locationFeatures": null, "openingHours": {"mondayOpen": "09:00", "mondayClose": "22:00", "tuesdayOpen": "09:00", "tuesdayClose": "22:00", "wednesdayOpen": "09:00", "wednesdayClose": "22:00", "thursdayOpen": "09:00", "thursdayClose": "22:00", "fridayOpen": "09:00", "fridayClose": "22:00", "saturdayOpen": "09:00", "saturdayClose": "22:00", "sundayOpen": "09:00", "sundayClose": "20:00"}, "operationalInfo": {"storeManager": "JOANNE ELVERS", "areaRegion": "QNS5", "areaRegionMgr": "Luke Pope (Secondment)", "regionZone": "QNS", "regionZoneMgr": "Adam Hill"}, "openingHoursExceptions": [], "isOpen": true, "openingDate": null, "closingDate": null, "cncEnabled": true, "cncStore": true}, {"locationID": 34256166, "brandID": 3, "storeID": 6103, "latitude": -28.039866, "longitude": 153.43378, "storeName": "Mermaid Beach Cellar", "address": "2547 Gold Coast Highway", "suburb": "Mermaid Beach", "postcode": "4218", "state": "QLD", "phone": "(07) 3734 0839", "distance": 2.205, "fax": "", "locationFeatures": null, "openingHours": {"mondayOpen": "10:00", "mondayClose": "20:00", "tuesdayOpen": "10:00", "tuesdayClose": "20:00", "wednesdayOpen": "10:00", "wednesdayClose": "20:00", "thursdayOpen": "10:00", "thursdayClose": "21:00", "fridayOpen": "10:00", "fridayClose": "22:00", "saturdayOpen": "10:00", "saturdayClose": "22:00", "sundayOpen": "10:00", "sundayClose": "20:00"}, "operationalInfo": {"storeManager": "LISA HEARN", "areaRegion": "QNS5", "areaRegionMgr": "Luke Pope (Secondment)", "regionZone": "QNS", "regionZoneMgr": "Adam Hill"}, "openingHoursExceptions": [], "isOpen": true, "openingDate": null, "closingDate": null, "cncEnabled": true, "cncStore": true}, {"locationID": 34256305, "brandID": 3, "storeID": 6471, "latitude": -28.077092, "longitude": 153.385427, "storeName": "Robina", "address": "19 Robina Town Centre Drive", "suburb": "Robina", "postcode": "4226", "state": "QLD", "phone": "(07) 5501 6180", "distance": 4.219, "fax": "", "locationFeatures": null, "openingHours": {"mondayOpen": "09:00", "mondayClose": "21:00", "tuesdayOpen": "09:00", "tuesdayClose": "21:00", "wednesdayOpen": "09:00", "wednesdayClose": "21:00", "thursdayOpen": "09:00", "thursdayClose": "21:00", "fridayOpen": "09:00", "fridayClose": "21:00", "saturdayOpen": "09:00", "saturdayClose": "21:00", "sundayOpen": "09:00", "sundayClose": "18:00"}, "operationalInfo": {"storeManager": "ROBERT LESCHKE", "areaRegion": "QNS4", "areaRegionMgr": "Graham Parsonson", "regionZone": "QNS", "regionZoneMgr": "Adam Hill"}, "openingHoursExceptions": [], "isOpen": true, "openingDate": null, "closingDate": null, "cncEnabled": true, "cncStore": true}, {"locationID": 34256334, "brandID": 3, "storeID": 6653, "latitude": -28.074096, "longitude": 153.444112, "storeName": "Miami", "address": "Corner Gold Coast Avenue And Nundah Avenue", "suburb": "Miami", "postcode": "4220", "state": "QLD", "phone": "(07) 3734 0860", "distance": 4.57, "fax": "", "locationFeatures": null, "openingHours": {"mondayOpen": "09:00", "mondayClose": "21:00", "tuesdayOpen": "09:00", "tuesdayClose": "21:00", "wednesdayOpen": "09:00", "wednesdayClose": "21:00", "thursdayOpen": "09:00", "thursdayClose": "21:00", "fridayOpen": "09:00", "fridayClose": "22:00", "saturdayOpen": "09:00", "saturdayClose": "21:00", "sundayOpen": "09:00", "sundayClose": "19:00"}, "operationalInfo": {"storeManager": "TAYLOR ROGERS", "areaRegion": "QNS4", "areaRegionMgr": "Graham Parsonson", "regionZone": "QNS", "regionZoneMgr": "Adam Hill"}, "openingHoursExceptions": [], "isOpen": true, "openingDate": null, "closingDate": null, "cncEnabled": true, "cncStore": true}, {"locationID": 34256252, "brandID": 3, "storeID": 8688, "latitude": -27.999577, "longitude": 153.427829, "storeName": "Surfers Paradise Express", "address": "3240 Gold Coast Highway", "suburb": "Surfers Paradise", "postcode": "4217", "state": "QLD", "phone": "(07) 3734 0837", "distance": 5.157, "fax": "", "locationFeatures": null, "openingHours": {"mondayOpen": "10:00", "mondayClose": "22:00", "tuesdayOpen": "10:00", "tuesdayClose": "22:00", "wednesdayOpen": "10:00", "wednesdayClose": "22:00", "thursdayOpen": "10:00", "thursdayClose": "22:00", "fridayOpen": "10:00", "fridayClose": "22:00", "saturdayOpen": "10:00", "saturdayClose": "22:00", "sundayOpen": "10:00", "sundayClose": "21:00"}, "operationalInfo": {"storeManager": "", "areaRegion": "QNS5", "areaRegionMgr": "Luke Pope (Secondment)", "regionZone": "QNS", "regionZoneMgr": "Adam Hill"}, "openingHoursExceptions": [], "isOpen": true, "openingDate": null, "closingDate": null, "cncEnabled": true, "cncStore": true}, {"locationID": 34256301, "brandID": 3, "storeID": 6461, "latitude": -27.99962, "longitude": 153.37724, "storeName": "Benowa Village", "address": "Corner Ross Street And Ashmore Road", "suburb": "Ashmore", "postcode": "4217", "state": "QLD", "phone": "(07) 5510 7580", "distance": 5.553, "fax": "", "locationFeatures": null, "openingHours": {"mondayOpen": "09:00", "mondayClose": "20:00", "tuesdayOpen": "09:00", "tuesdayClose": "20:00", "wednesdayOpen": "09:00", "wednesdayClose": "20:00", "thursdayOpen": "09:00", "thursdayClose": "21:00", "fridayOpen": "09:00", "fridayClose": "21:00", "saturdayOpen": "09:00", "saturdayClose": "21:00", "sundayOpen": "09:00", "sundayClose": "19:00"}, "operationalInfo": {"storeManager": "BRADLEY OWEN", "areaRegion": "QNS5", "areaRegionMgr": "Luke Pope (Secondment)", "regionZone": "QNS", "regionZoneMgr": "Adam Hill"}, "openingHoursExceptions": [], "isOpen": true, "openingDate": null, "closingDate": null, "cncEnabled": true, "cncStore": true}, {"locationID": 34256351, "brandID": 3, "storeID": 6694, "latitude": -28.099391, "longitude": 153.425047, "storeName": "Treetops Plaza", "address": "3 Classic Way", "suburb": "Burleigh Waters", "postcode": "4220", "state": "QLD", "phone": "(07) 3726 9685", "distance": 6.378, "fax": "", "locationFeatures": null, "openingHours": {"mondayOpen": "09:00", "mondayClose": "20:00", "tuesdayOpen": "09:00", "tuesdayClose": "20:00", "wednesdayOpen": "09:00", "wednesdayClose": "20:00", "thursdayOpen": "09:00", "thursdayClose": "20:00", "fridayOpen": "09:00", "fridayClose": "20:00", "saturdayOpen": "09:00", "saturdayClose": "20:00", "sundayOpen": "09:00", "sundayClose": "18:00"}, "operationalInfo": {"storeManager": "PAUL HEATHCOTE", "areaRegion": "QNS4", "areaRegionMgr": "Graham Parsonson", "regionZone": "QNS", "regionZoneMgr": "Adam Hill"}, "openingHoursExceptions": [], "isOpen": true, "openingDate": null, "closingDate": null, "cncEnabled": true, "cncStore": true}, {"locationID": 34256075, "brandID": 3, "storeID": 6007, "latitude": -27.985491, "longitude": 153.410135, "storeName": "Southport Park", "address": "Cnr Ferry And Benowa Road", "suburb": "Southport", "postcode": "4215", "state": "QLD", "phone": "(07) 5635 5280", "distance": 6.45, "fax": "", "locationFeatures": null, "openingHours": {"mondayOpen": "09:00", "mondayClose": "20:00", "tuesdayOpen": "09:00", "tuesdayClose": "20:00", "wednesdayOpen": "09:00", "wednesdayClose": "20:00", "thursdayOpen": "09:00", "thursdayClose": "21:00", "fridayOpen": "09:00", "fridayClose": "21:00", "saturdayOpen": "09:00", "saturdayClose": "21:00", "sundayOpen": "10:00", "sundayClose": "18:00"}, "operationalInfo": {"storeManager": "DANA LALICH", "areaRegion": "QNS5", "areaRegionMgr": "Luke Pope (Secondment)", "regionZone": "QNS", "regionZoneMgr": "Adam Hill"}, "openingHoursExceptions": [], "isOpen": true, "openingDate": null, "closingDate": null, "cncEnabled": true, "cncStore": true}, {"locationID": 34256165, "brandID": 3, "storeID": 6102, "latitude": -28.098185, "longitude": 153.441791, "storeName": "West Burleigh Cellar", "address": "Reedy Creek Road", "suburb": "West Burleigh", "postcode": "4219", "state": "QLD", "phone": "(07) 3734 0838", "distance": 6.719, "fax": "", "locationFeatures": null, "openingHours": {"mondayOpen": "09:00", "mondayClose": "20:00", "tuesdayOpen": "09:00", "tuesdayClose": "20:00", "wednesdayOpen": "09:00", "wednesdayClose": "20:00", "thursdayOpen": "09:00", "thursdayClose": "20:00", "fridayOpen": "09:00", "fridayClose": "20:00", "saturdayOpen": "09:00", "saturdayClose": "19:00", "sundayOpen": "09:00", "sundayClose": "18:00"}, "operationalInfo": {"storeManager": "JESSICA REYNOLDS", "areaRegion": "QNS4", "areaRegionMgr": "Graham Parsonson", "regionZone": "QNS", "regionZoneMgr": "Adam Hill"}, "openingHoursExceptions": [], "isOpen": true, "openingDate": null, "closingDate": null, "cncEnabled": true, "cncStore": true}, {"locationID": 34256405, "brandID": 3, "storeID": 6534, "latitude": -27.979797, "longitude": 153.425049, "storeName": "Main Beach", "address": "26-30 Tedder Avenue", "suburb": "Main Beach", "postcode": "4217", "state": "QLD", "phone": "(07) 3726 9688", "distance": 7.223, "fax": "", "locationFeatures": null, "openingHours": {"mondayOpen": "10:00", "mondayClose": "20:00", "tuesdayOpen": "10:00", "tuesdayClose": "20:00", "wednesdayOpen": "10:00", "wednesdayClose": "20:00", "thursdayOpen": "10:00", "thursdayClose": "20:00", "fridayOpen": "10:00", "fridayClose": "21:00", "saturdayOpen": "10:00", "saturdayClose": "21:00", "sundayOpen": "10:00", "sundayClose": "20:00"}, "operationalInfo": {"storeManager": "PHILIP UNDERWOOD", "areaRegion": "QNS5", "areaRegionMgr": "Luke Pope (Secondment)", "regionZone": "QNS", "regionZoneMgr": "Adam Hill"}, "openingHoursExceptions": [], "isOpen": true, "openingDate": null, "closingDate": null, "cncEnabled": true, "cncStore": true}, {"locationID": 34256421, "brandID": 3, "storeID": 6608, "latitude": -27.977818, "longitude": 153.380717, "storeName": "Ashmore", "address": "Corner Nerang-Southport Road And Currumburra Road", "suburb": "Ashmore", "postcode": "4214", "state": "QLD", "phone": "(07) 3726 9689", "distance": 7.673, "fax": "", "locationFeatures": null, "openingHours": {"mondayOpen": "09:00", "mondayClose": "19:00", "tuesdayOpen": "09:00", "tuesdayClose": "19:00", "wednesdayOpen": "09:00", "wednesdayClose": "19:00", "thursdayOpen": "09:00", "thursdayClose": "19:00", "fridayOpen": "09:00", "fridayClose": "21:00", "saturdayOpen": "09:00", "saturdayClose": "18:00", "sundayOpen": "10:00", "sundayClose": "18:00"}, "operationalInfo": {"storeManager": "", "areaRegion": "QNS5", "areaRegionMgr": "Luke Pope (Secondment)", "regionZone": "QNS", "regionZoneMgr": "Adam Hill"}, "openingHoursExceptions": [], "isOpen": true, "openingDate": null, "closingDate": null, "cncEnabled": true, "cncStore": true}, {"locationID": 34256420, "brandID": 3, "storeID": 6599, "latitude": -27.998022, "longitude": 153.338097, "storeName": "Nerang", "address": "57 Station Street", "suburb": "Nerang", "postcode": "4211", "state": "QLD", "phone": "(07) 3734 0802", "distance": 7.841, "fax": "", "locationFeatures": null, "openingHours": {"mondayOpen": "09:00", "mondayClose": "20:00", "tuesdayOpen": "09:00", "tuesdayClose": "20:00", "wednesdayOpen": "09:00", "wednesdayClose": "20:00", "thursdayOpen": "09:00", "thursdayClose": "20:00", "fridayOpen": "09:00", "fridayClose": "21:00", "saturdayOpen": "09:00", "saturdayClose": "19:00", "sundayOpen": "09:00", "sundayClose": "18:00"}, "operationalInfo": {"storeManager": "VICTORIA CAMERON", "areaRegion": "QNS5", "areaRegionMgr": "Luke Pope (Secondment)", "regionZone": "QNS", "regionZoneMgr": "Adam Hill"}, "openingHoursExceptions": [], "isOpen": true, "openingDate": null, "closingDate": null, "cncEnabled": true, "cncStore": true}, {"locationID": 34256164, "brandID": 3, "storeID": 6101, "latitude": -28.11117, "longitude": 153.440508, "storeName": "Burleigh Barn", "address": "Corner Tsipura Drive And Township Drive", "suburb": "West Burleigh", "postcode": "4219", "state": "QLD", "phone": "(07) 3726 9612", "distance": 8.011, "fax": "", "locationFeatures": null, "openingHours": {"mondayOpen": "10:00", "mondayClose": "20:00", "tuesdayOpen": "10:00", "tuesdayClose": "20:00", "wednesdayOpen": "10:00", "wednesdayClose": "20:00", "thursdayOpen": "10:00", "thursdayClose": "20:00", "fridayOpen": "10:00", "fridayClose": "21:00", "saturdayOpen": "10:00", "saturdayClose": "21:00", "sundayOpen": "10:00", "sundayClose": "19:00"}, "operationalInfo": {"storeManager": "MARK OCONNOR", "areaRegion": "QNS4", "areaRegionMgr": "Graham Parsonson", "regionZone": "QNS", "regionZoneMgr": "Adam Hill"}, "openingHoursExceptions": [], "isOpen": true, "openingDate": null, "closingDate": null, "cncEnabled": true, "cncStore": true}, {"locationID": 34256162, "brandID": 3, "storeID": 6098, "latitude": -27.968892, "longitude": 153.415689, "storeName": "Australia Fair", "address": "42 Marine Parade", "suburb": "Southport", "postcode": "4215", "state": "QLD", "phone": "(07) 5668 4980", "distance": 8.318, "fax": "", "locationFeatures": null, "openingHours": {"mondayOpen": "09:00", "mondayClose": "19:00", "tuesdayOpen": "09:00", "tuesdayClose": "19:00", "wednesdayOpen": "09:00", "wednesdayClose": "19:00", "thursdayOpen": "09:00", "thursdayClose": "20:00", "fridayOpen": "09:00", "fridayClose": "21:00", "saturdayOpen": "09:00", "saturdayClose": "21:00", "sundayOpen": "09:00", "sundayClose": "19:00"}, "operationalInfo": {"storeManager": "BLAKE CHAPMAN", "areaRegion": "QNS5", "areaRegionMgr": "Luke Pope (Secondment)", "regionZone": "QNS", "regionZoneMgr": "Adam Hill"}, "openingHoursExceptions": [], "isOpen": true, "openingDate": null, "closingDate": null, "cncEnabled": true, "cncStore": true}, {"locationID": 34256238, "brandID": 3, "storeID": 6204, "latitude": -27.951385, "longitude": 153.408099, "storeName": "Labrador", "address": "36 Frank Street", "suburb": "Labrador", "postcode": "4215", "state": "QLD", "phone": "(07) 3734 0847", "distance": 10.241, "fax": "", "locationFeatures": null, "openingHours": {"mondayOpen": "09:00", "mondayClose": "20:00", "tuesdayOpen": "09:00", "tuesdayClose": "20:00", "wednesdayOpen": "09:00", "wednesdayClose": "20:00", "thursdayOpen": "09:00", "thursdayClose": "20:00", "fridayOpen": "09:00", "fridayClose": "21:00", "saturdayOpen": "09:00", "saturdayClose": "21:00", "sundayOpen": "09:00", "sundayClose": "20:00"}, "operationalInfo": {"storeManager": "", "areaRegion": "QNS5", "areaRegionMgr": "Luke Pope (Secondment)", "regionZone": "QNS", "regionZoneMgr": "Adam Hill"}, "openingHoursExceptions": [], "isOpen": true, "openingDate": null, "closingDate": null, "cncEnabled": true, "cncStore": true}, {"locationID": 34256167, "brandID": 3, "storeID": 6104, "latitude": -28.122049, "longitude": 153.473052, "storeName": "Palm Beach", "address": "Pavillions On 5th Avenue", "suburb": "Palm Beach", "postcode": "4221", "state": "QLD", "phone": "(07) 5631 1180", "distance": 10.334, "fax": "", "locationFeatures": null, "openingHours": {"mondayOpen": "09:00", "mondayClose": "20:00", "tuesdayOpen": "09:00", "tuesdayClose": "20:00", "wednesdayOpen": "09:00", "wednesdayClose": "20:00", "thursdayOpen": "09:00", "thursdayClose": "21:00", "fridayOpen": "09:00", "fridayClose": "21:00", "saturdayOpen": "09:00", "saturdayClose": "21:00", "sundayOpen": "09:00", "sundayClose": "20:00"}, "operationalInfo": {"storeManager": "TARYN TONKIN", "areaRegion": "QNS4", "areaRegionMgr": "Graham Parsonson", "regionZone": "QNS", "regionZoneMgr": "Adam Hill"}, "openingHoursExceptions": [], "isOpen": true, "openingDate": null, "closingDate": null, "cncEnabled": true, "cncStore": true}, {"locationID": 34256163, "brandID": 3, "storeID": 6099, "latitude": -28.135445, "longitude": 153.470206, "storeName": "The Pines (elanora)", "address": "13-31 Guineas Creek Road", "suburb": "Elanora", "postcode": "4221", "state": "QLD", "phone": "(07) 5586 4480", "distance": 11.507, "fax": "", "locationFeatures": null, "openingHours": {"mondayOpen": "09:00", "mondayClose": "21:00", "tuesdayOpen": "09:00", "tuesdayClose": "21:00", "wednesdayOpen": "09:00", "wednesdayClose": "21:00", "thursdayOpen": "09:00", "thursdayClose": "21:00", "fridayOpen": "09:00", "fridayClose": "21:00", "saturdayOpen": "09:00", "saturdayClose": "21:00", "sundayOpen": "09:00", "sundayClose": "18:00"}, "operationalInfo": {"storeManager": "JAKE BISCHOFF", "areaRegion": "QNS4", "areaRegionMgr": "Graham Parsonson", "regionZone": "QNS", "regionZoneMgr": "Adam Hill"}, "openingHoursExceptions": [], "isOpen": true, "openingDate": null, "closingDate": null, "cncEnabled": true, "cncStore": true}, {"locationID": 34256414, "brandID": 3, "storeID": 6544, "latitude": -27.925676, "longitude": 153.323704, "storeName": "Pacific Pines", "address": "2 Universal Street", "suburb": "Pacific Pines", "postcode": "4211", "state": "QLD", "phone": "(07) 3726 9696", "distance": 14.959, "fax": "", "locationFeatures": null, "openingHours": {"mondayOpen": "10:00", "mondayClose": "19:00", "tuesdayOpen": "10:00", "tuesdayClose": "19:00", "wednesdayOpen": "10:00", "wednesdayClose": "19:00", "thursdayOpen": "10:00", "thursdayClose": "20:00", "fridayOpen": "10:00", "fridayClose": "21:00", "saturdayOpen": "10:00", "saturdayClose": "21:00", "sundayOpen": "10:00", "sundayClose": "19:00"}, "operationalInfo": {"storeManager": "PAUL RANISAV", "areaRegion": "QNS5", "areaRegionMgr": "Luke Pope (Secondment)", "regionZone": "QNS", "regionZoneMgr": "Adam Hill"}, "openingHoursExceptions": [], "isOpen": true, "openingDate": null, "closingDate": null, "cncEnabled": true, "cncStore": true}, {"locationID": 34256073, "brandID": 3, "storeID": 6003, "latitude": -27.92507, "longitude": 153.306145, "storeName": "Pacific Pines (pitcairn Way)", "address": "Corner Binstead Way And Pitcairn Way", "suburb": "Pacific Pines", "postcode": "4211", "state": "QLD", "phone": "(07) 5644 1380", "distance": 15.793, "fax": "", "locationFeatures": null, "openingHours": {"mondayOpen": "09:00", "mondayClose": "21:00", "tuesdayOpen": "09:00", "tuesdayClose": "21:00", "wednesdayOpen": "09:00", "wednesdayClose": "21:00", "thursdayOpen": "09:00", "thursdayClose": "21:00", "fridayOpen": "09:00", "fridayClose": "21:00", "saturdayOpen": "09:00", "saturdayClose": "21:00", "sundayOpen": "09:00", "sundayClose": "19:00"}, "operationalInfo": {"storeManager": "CHRISTOPHER COE", "areaRegion": "QNS5", "areaRegionMgr": "Luke Pope (Secondment)", "regionZone": "QNS", "regionZoneMgr": "Adam Hill"}, "openingHoursExceptions": [], "isOpen": true, "openingDate": null, "closingDate": null, "cncEnabled": true, "cncStore": true}, {"locationID": 34256237, "brandID": 3, "storeID": 6203, "latitude": -27.899853, "longitude": 153.385617, "storeName": "Coombabah", "address": "21 Hansford Road", "suburb": "Coombabah", "postcode": "4216", "state": "QLD", "phone": "(07) 3734 0846", "distance": 16.089, "fax": "", "locationFeatures": null, "openingHours": {"mondayOpen": "10:00", "mondayClose": "19:00", "tuesdayOpen": "10:00", "tuesdayClose": "19:00", "wednesdayOpen": "10:00", "wednesdayClose": "19:00", "thursdayOpen": "10:00", "thursdayClose": "20:00", "fridayOpen": "10:00", "fridayClose": "20:00", "saturdayOpen": "10:00", "saturdayClose": "20:00", "sundayOpen": "10:00", "sundayClose": "19:00"}, "operationalInfo": {"storeManager": "TINA WILSON", "areaRegion": "QNS5", "areaRegionMgr": "Luke Pope (Secondment)", "regionZone": "QNS", "regionZoneMgr": "Adam Hill"}, "openingHoursExceptions": [], "isOpen": true, "openingDate": null, "closingDate": null, "cncEnabled": true, "cncStore": true}, {"locationID": 34255951, "brandID": 3, "storeID": 8373, "latitude": -27.913858, "longitude": 153.282881, "storeName": "Coomera Lodge Bottleshop", "address": "160 Maudsland Road", "suburb": "Upper Coomera", "postcode": "4209", "state": "QLD", "phone": "(07) 3726 9625", "distance": 17.954, "fax": "", "locationFeatures": null, "openingHours": {"mondayOpen": "10:00", "mondayClose": "19:00", "tuesdayOpen": "10:00", "tuesdayClose": "19:00", "wednesdayOpen": "10:00", "wednesdayClose": "20:00", "thursdayOpen": "10:00", "thursdayClose": "20:00", "fridayOpen": "10:00", "fridayClose": "21:00", "saturdayOpen": "10:00", "saturdayClose": "20:00", "sundayOpen": "10:00", "sundayClose": "19:00"}, "operationalInfo": {"storeManager": "AMEIKA WATSON", "areaRegion": "QNS5", "areaRegionMgr": "Luke Pope (Secondment)", "regionZone": "QNS", "regionZoneMgr": "Adam Hill"}, "openingHoursExceptions": [], "isOpen": true, "openingDate": null, "closingDate": null, "cncEnabled": true, "cncStore": true}, {"locationID": 34256169, "brandID": 3, "storeID": 6117, "latitude": -28.172356, "longitude": 153.543823, "storeName": "Tweed Heads", "address": "Corner Francis Street And Wharf Street", "suburb": "Tweed Heads", "postcode": "2485", "state": "NSW", "phone": "(07) 3726 9679", "distance": 18.409, "fax": "", "locationFeatures": null, "openingHours": {"mondayOpen": "09:00", "mondayClose": "20:00", "tuesdayOpen": "09:00", "tuesdayClose": "20:00", "wednesdayOpen": "09:00", "wednesdayClose": "20:00", "thursdayOpen": "09:00", "thursdayClose": "20:00", "fridayOpen": "09:00", "fridayClose": "21:00", "saturdayOpen": "09:00", "saturdayClose": "21:00", "sundayOpen": "10:00", "sundayClose": "19:00"}, "operationalInfo": {"storeManager": "NATALIE STEWART", "areaRegion": "QNS4", "areaRegionMgr": "Graham Parsonson", "regionZone": "QNS", "regionZoneMgr": "Adam Hill"}, "openingHoursExceptions": [], "isOpen": true, "openingDate": null, "closingDate": null, "cncEnabled": true, "cncStore": true}, {"locationID": 34256415, "brandID": 3, "storeID": 6545, "latitude": -27.878507, "longitude": 153.36488, "storeName": "Hope Island", "address": "87-97 Broadwater Avenue", "suburb": "Hope Island", "postcode": "4212", "state": "QLD", "phone": "(07) 3726 9619", "distance": 18.717, "fax": "", "locationFeatures": null, "openingHours": {"mondayOpen": "10:00", "mondayClose": "20:00", "tuesdayOpen": "10:00", "tuesdayClose": "20:00", "wednesdayOpen": "10:00", "wednesdayClose": "20:00", "thursdayOpen": "10:00", "thursdayClose": "20:00", "fridayOpen": "10:00", "fridayClose": "21:00", "saturdayOpen": "10:00", "saturdayClose": "21:00", "sundayOpen": "10:00", "sundayClose": "19:00"}, "operationalInfo": {"storeManager": "COREY GODWIN", "areaRegion": "QNS5", "areaRegionMgr": "Luke Pope (Secondment)", "regionZone": "QNS", "regionZoneMgr": "Adam Hill"}, "openingHoursExceptions": [], "isOpen": true, "openingDate": null, "closingDate": null, "cncEnabled": true, "cncStore": true}]