[{"locationID": 34256314, "brandID": 3, "storeID": 6510, "latitude": -27.456476, "longitude": 153.154731, "storeName": "Wynnum West", "address": "2021 Wynnum Road", "suburb": "Wynnum West", "postcode": "4178", "state": "QLD", "phone": "(07) 3734 0853", "distance": 1.486, "fax": "", "locationFeatures": null, "openingHours": {"mondayOpen": "09:00", "mondayClose": "20:00", "tuesdayOpen": "09:00", "tuesdayClose": "20:00", "wednesdayOpen": "09:00", "wednesdayClose": "20:00", "thursdayOpen": "09:00", "thursdayClose": "21:00", "fridayOpen": "09:00", "fridayClose": "21:00", "saturdayOpen": "09:00", "saturdayClose": "21:00", "sundayOpen": "09:00", "sundayClose": "18:00"}, "operationalInfo": {"storeManager": "JOEL POLAK", "areaRegion": "QLD1CB", "areaRegionMgr": "Matthue Woods", "regionZone": "QLD", "regionZoneMgr": "Mat Davey"}, "openingHoursExceptions": [], "isOpen": true, "openingDate": null, "closingDate": null, "cncEnabled": true, "cncStore": true}, {"locationID": 34256225, "brandID": 3, "storeID": 6136, "latitude": -27.454041, "longitude": 153.167096, "storeName": "Wynnum", "address": "210 West Avenue", "suburb": "Wynnum", "postcode": "4178", "state": "QLD", "phone": "(07) 3734 0843", "distance": 2.496, "fax": "", "locationFeatures": null, "openingHours": {"mondayOpen": "09:00", "mondayClose": "20:00", "tuesdayOpen": "09:00", "tuesdayClose": "20:00", "wednesdayOpen": "09:00", "wednesdayClose": "20:00", "thursdayOpen": "09:00", "thursdayClose": "20:00", "fridayOpen": "09:00", "fridayClose": "21:00", "saturdayOpen": "09:00", "saturdayClose": "20:00", "sundayOpen": "10:00", "sundayClose": "19:00"}, "operationalInfo": {"storeManager": "ZOE JEFFERIES", "areaRegion": "QLD1CB", "areaRegionMgr": "Matthue Woods", "regionZone": "QLD", "regionZoneMgr": "Mat Davey"}, "openingHoursExceptions": [], "isOpen": true, "openingDate": null, "closingDate": null, "cncEnabled": true, "cncStore": true}, {"locationID": 34256350, "brandID": 3, "storeID": 6691, "latitude": -27.471362, "longitude": 153.097965, "storeName": "Cannon Hill", "address": "Corner Creek Road And Wynnum Road", "suburb": "Cannon Hill", "postcode": "4170", "state": "QLD", "phone": "(07) 3734 0864", "distance": 3.813, "fax": "", "locationFeatures": null, "openingHours": {"mondayOpen": "09:00", "mondayClose": "20:00", "tuesdayOpen": "09:00", "tuesdayClose": "20:00", "wednesdayOpen": "09:00", "wednesdayClose": "20:00", "thursdayOpen": "09:00", "thursdayClose": "21:00", "fridayOpen": "09:00", "fridayClose": "21:00", "saturdayOpen": "09:00", "saturdayClose": "21:00", "sundayOpen": "09:00", "sundayClose": "18:00"}, "operationalInfo": {"storeManager": "PHELAN HOLMES", "areaRegion": "QLD1CB", "areaRegionMgr": "Matthue Woods", "regionZone": "QLD", "regionZoneMgr": "Mat Davey"}, "openingHoursExceptions": [], "isOpen": true, "openingDate": null, "closingDate": null, "cncEnabled": true, "cncStore": true}, {"locationID": 34256173, "brandID": 3, "storeID": 6127, "latitude": -27.501652, "longitude": 153.116217, "storeName": "Carindale", "address": "42 Scrub Road", "suburb": "Carindale", "postcode": "4152", "state": "QLD", "phone": "(07) 3734 0842", "distance": 4.572, "fax": "", "locationFeatures": null, "openingHours": {"mondayOpen": "10:00", "mondayClose": "20:00", "tuesdayOpen": "10:00", "tuesdayClose": "20:00", "wednesdayOpen": "10:00", "wednesdayClose": "20:00", "thursdayOpen": "10:00", "thursdayClose": "20:00", "fridayOpen": "10:00", "fridayClose": "21:00", "saturdayOpen": "10:00", "saturdayClose": "21:00", "sundayOpen": "10:00", "sundayClose": "19:00"}, "operationalInfo": {"storeManager": "ALBERT WESSLING", "areaRegion": "QNS7", "areaRegionMgr": "Ben Harris", "regionZone": "QNS", "regionZoneMgr": "Adam Hill"}, "openingHoursExceptions": [], "isOpen": true, "openingDate": null, "closingDate": null, "cncEnabled": true, "cncStore": true}, {"locationID": 34256345, "brandID": 3, "storeID": 6684, "latitude": -27.501911, "longitude": 153.102592, "storeName": "Carindale Westfield", "address": "1151 Creek Road", "suburb": "Carindale", "postcode": "4152", "state": "QLD", "phone": "(07) 3308 6180", "distance": 5.254, "fax": "", "locationFeatures": null, "openingHours": {"mondayOpen": "09:00", "mondayClose": "21:00", "tuesdayOpen": "09:00", "tuesdayClose": "21:00", "wednesdayOpen": "09:00", "wednesdayClose": "21:00", "thursdayOpen": "09:00", "thursdayClose": "22:00", "fridayOpen": "09:00", "fridayClose": "21:00", "saturdayOpen": "09:00", "saturdayClose": "21:00", "sundayOpen": "09:00", "sundayClose": "18:00"}, "operationalInfo": {"storeManager": "TIMOTHY SCHULTZ", "areaRegion": "QLD1CB", "areaRegionMgr": "Matthue Woods", "regionZone": "QLD", "regionZoneMgr": "Mat Davey"}, "openingHoursExceptions": [], "isOpen": true, "openingDate": null, "closingDate": null, "cncEnabled": true, "cncStore": true}, {"locationID": 34256413, "brandID": 3, "storeID": 6543, "latitude": -27.465241, "longitude": 153.079213, "storeName": "Morningside", "address": "38 Junction Road", "suburb": "Morningside", "postcode": "4170", "state": "QLD", "phone": "(07) 3734 0883", "distance": 5.359, "fax": "", "locationFeatures": null, "openingHours": {"mondayOpen": "09:00", "mondayClose": "21:00", "tuesdayOpen": "09:00", "tuesdayClose": "21:00", "wednesdayOpen": "09:00", "wednesdayClose": "21:00", "thursdayOpen": "09:00", "thursdayClose": "21:00", "fridayOpen": "09:00", "fridayClose": "21:00", "saturdayOpen": "09:00", "saturdayClose": "20:00", "sundayOpen": "10:00", "sundayClose": "18:00"}, "operationalInfo": {"storeManager": "DEVANGKUMAR PATEL", "areaRegion": "QLD1CB", "areaRegionMgr": "Matthue Woods", "regionZone": "QLD", "regionZoneMgr": "Mat Davey"}, "openingHoursExceptions": [], "isOpen": true, "openingDate": null, "closingDate": null, "cncEnabled": true, "cncStore": true}, {"locationID": 34255942, "brandID": 3, "storeID": 8340, "latitude": -27.492447, "longitude": 153.216923, "storeName": "Birkdale Grape", "address": "180 Birkdale Road", "suburb": "Birkdale", "postcode": "4159", "state": "QLD", "phone": "(07) 3726 9650", "distance": 7.05, "fax": "", "locationFeatures": null, "openingHours": {"mondayOpen": "10:00", "mondayClose": "20:00", "tuesdayOpen": "10:00", "tuesdayClose": "20:00", "wednesdayOpen": "10:00", "wednesdayClose": "20:00", "thursdayOpen": "10:00", "thursdayClose": "20:00", "fridayOpen": "10:00", "fridayClose": "21:00", "saturdayOpen": "10:00", "saturdayClose": "21:00", "sundayOpen": "10:00", "sundayClose": "20:00"}, "operationalInfo": {"storeManager": "ASHLEY HOFFMAN", "areaRegion": "QNS7", "areaRegionMgr": "Ben Harris", "regionZone": "QNS", "regionZoneMgr": "Adam Hill"}, "openingHoursExceptions": [], "isOpen": true, "openingDate": null, "closingDate": null, "cncEnabled": true, "cncStore": true}, {"locationID": 34256337, "brandID": 3, "storeID": 6666, "latitude": -27.434076, "longitude": 153.065449, "storeName": "Ascot", "address": "Corner Racecourse Street And Dobson Street", "suburb": "Ascot", "postcode": "4007", "state": "QLD", "phone": "(07) 2105 0580", "distance": 7.415, "fax": "", "locationFeatures": null, "openingHours": {"mondayOpen": "09:00", "mondayClose": "21:00", "tuesdayOpen": "09:00", "tuesdayClose": "21:00", "wednesdayOpen": "09:00", "wednesdayClose": "21:00", "thursdayOpen": "09:00", "thursdayClose": "21:00", "fridayOpen": "09:00", "fridayClose": "21:00", "saturdayOpen": "09:00", "saturdayClose": "21:00", "sundayOpen": "10:00", "sundayClose": "19:00"}, "operationalInfo": {"storeManager": "STEPHEN HOHIPA", "areaRegion": "QLD2CB", "areaRegionMgr": "Kellianne Doyle", "regionZone": "QLD", "regionZoneMgr": "Mat Davey"}, "openingHoursExceptions": [], "isOpen": true, "openingDate": null, "closingDate": null, "cncEnabled": true, "cncStore": true}, {"locationID": 34255950, "brandID": 3, "storeID": 8370, "latitude": -27.534649, "longitude": 153.206071, "storeName": "Currumbin Court Bottleshop", "address": "3 Currumbin Court", "suburb": "Capalaba", "postcode": "4157", "state": "QLD", "phone": "(07) 3726 9691", "distance": 9.421, "fax": "", "locationFeatures": null, "openingHours": {"mondayOpen": "10:00", "mondayClose": "19:00", "tuesdayOpen": "10:00", "tuesdayClose": "19:00", "wednesdayOpen": "10:00", "wednesdayClose": "19:00", "thursdayOpen": "10:00", "thursdayClose": "20:00", "fridayOpen": "10:00", "fridayClose": "20:00", "saturdayOpen": "10:00", "saturdayClose": "20:00", "sundayOpen": "10:00", "sundayClose": "18:00"}, "operationalInfo": {"storeManager": "KYM PATTISON", "areaRegion": "QNS7", "areaRegionMgr": "Ben Harris", "regionZone": "QNS", "regionZoneMgr": "Adam Hill"}, "openingHoursExceptions": [], "isOpen": true, "openingDate": null, "closingDate": null, "cncEnabled": true, "cncStore": true}, {"locationID": 34256312, "brandID": 3, "storeID": 6486, "latitude": -27.540449, "longitude": 153.082799, "storeName": "Mt Gravatt Plaza", "address": "55 Creek Road", "suburb": "Mount Gravatt", "postcode": "4122", "state": "QLD", "phone": "(07) 3452 6480", "distance": 9.735, "fax": "", "locationFeatures": null, "openingHours": {"mondayOpen": "09:00", "mondayClose": "20:00", "tuesdayOpen": "09:00", "tuesdayClose": "20:00", "wednesdayOpen": "09:00", "wednesdayClose": "20:00", "thursdayOpen": "09:00", "thursdayClose": "20:00", "fridayOpen": "09:00", "fridayClose": "20:00", "saturdayOpen": "09:00", "saturdayClose": "20:00", "sundayOpen": "09:00", "sundayClose": "18:00"}, "operationalInfo": {"storeManager": "HAYDEN DONOHUE", "areaRegion": "QNS7", "areaRegionMgr": "Ben Harris", "regionZone": "QNS", "regionZoneMgr": "Adam Hill"}, "openingHoursExceptions": [], "isOpen": true, "openingDate": null, "closingDate": null, "cncEnabled": true, "cncStore": true}, {"locationID": 34256354, "brandID": 3, "storeID": 7008, "latitude": -27.469152, "longitude": 153.024554, "storeName": "Adelaide Street", "address": "79 Adelaide Street", "suburb": "Brisbane", "postcode": "4000", "state": "QLD", "phone": "(07) 2890 1680", "distance": 10.028, "fax": "", "locationFeatures": null, "openingHours": {"mondayOpen": "09:00", "mondayClose": "21:00", "tuesdayOpen": "09:00", "tuesdayClose": "21:00", "wednesdayOpen": "09:00", "wednesdayClose": "21:00", "thursdayOpen": "09:00", "thursdayClose": "21:00", "fridayOpen": "09:00", "fridayClose": "21:00", "saturdayOpen": "09:00", "saturdayClose": "21:00", "sundayOpen": "10:00", "sundayClose": "18:00"}, "operationalInfo": {"storeManager": "LACHLAN RAFF", "areaRegion": "QLD1CB", "areaRegionMgr": "Matthue Woods", "regionZone": "QLD", "regionZoneMgr": "Mat Davey"}, "openingHoursExceptions": [], "isOpen": true, "openingDate": null, "closingDate": null, "cncEnabled": true, "cncStore": true}, {"locationID": 34256160, "brandID": 3, "storeID": 6094, "latitude": -27.42253, "longitude": 153.034156, "storeName": "Lutwyche", "address": "543 Lutwyche Rd & Lowerson Rd", "suburb": "Lutwyche", "postcode": "4030", "state": "QLD", "phone": "(07) 3922 8480", "distance": 10.375, "fax": "", "locationFeatures": null, "openingHours": {"mondayOpen": "09:00", "mondayClose": "21:00", "tuesdayOpen": "09:00", "tuesdayClose": "21:00", "wednesdayOpen": "09:00", "wednesdayClose": "21:00", "thursdayOpen": "09:00", "thursdayClose": "21:00", "fridayOpen": "09:00", "fridayClose": "21:00", "saturdayOpen": "09:00", "saturdayClose": "21:00", "sundayOpen": "09:00", "sundayClose": "18:00"}, "operationalInfo": {"storeManager": "MICHELLE MCGRATH", "areaRegion": "QLD2CB", "areaRegionMgr": "Kellianne Doyle", "regionZone": "QLD", "regionZoneMgr": "Mat Davey"}, "openingHoursExceptions": [], "isOpen": true, "openingDate": null, "closingDate": null, "cncEnabled": true, "cncStore": true}, {"locationID": 34256227, "brandID": 3, "storeID": 6146, "latitude": -27.437231, "longitude": 153.023113, "storeName": "Windsor (qld)", "address": "142 Newmarket Road", "suburb": "Windsor", "postcode": "4030", "state": "QLD", "phone": "(07) 3734 0844", "distance": 10.624, "fax": "", "locationFeatures": null, "openingHours": {"mondayOpen": "09:00", "mondayClose": "20:00", "tuesdayOpen": "09:00", "tuesdayClose": "20:00", "wednesdayOpen": "09:00", "wednesdayClose": "21:00", "thursdayOpen": "09:00", "thursdayClose": "21:00", "fridayOpen": "09:00", "fridayClose": "21:00", "saturdayOpen": "09:00", "saturdayClose": "21:00", "sundayOpen": "10:00", "sundayClose": "20:00"}, "operationalInfo": {"storeManager": "TIMOTHY HALES", "areaRegion": "QLD2CB", "areaRegionMgr": "Kellianne Doyle", "regionZone": "QLD", "regionZoneMgr": "Mat Davey"}, "openingHoursExceptions": [], "isOpen": true, "openingDate": null, "closingDate": null, "cncEnabled": true, "cncStore": true}, {"locationID": 34255940, "brandID": 3, "storeID": 8336, "latitude": -27.509428, "longitude": 153.024171, "storeName": "Fairfield (fairfield Road)", "address": "190 Fairfield Road", "suburb": "Fairfield", "postcode": "4103", "state": "QLD", "phone": "(07) 3734 0867", "distance": 11.171, "fax": "", "locationFeatures": null, "openingHours": {"mondayOpen": "10:00", "mondayClose": "20:00", "tuesdayOpen": "10:00", "tuesdayClose": "20:00", "wednesdayOpen": "10:00", "wednesdayClose": "20:00", "thursdayOpen": "10:00", "thursdayClose": "20:00", "fridayOpen": "10:00", "fridayClose": "21:00", "saturdayOpen": "10:00", "saturdayClose": "21:00", "sundayOpen": "10:00", "sundayClose": "19:00"}, "operationalInfo": {"storeManager": "JAMIE ARTUS", "areaRegion": "QLD1CB", "areaRegionMgr": "Matthue Woods", "regionZone": "QLD", "regionZoneMgr": "Mat Davey"}, "openingHoursExceptions": [], "isOpen": true, "openingDate": null, "closingDate": null, "cncEnabled": true, "cncStore": true}, {"locationID": 34256294, "brandID": 3, "storeID": 6293, "latitude": -27.374822, "longitude": 153.077825, "storeName": "Banyo", "address": "299 Saint Vincents Road", "suburb": "Banyo", "postcode": "4014", "state": "QLD", "phone": "(07) 3726 9649", "distance": 11.488, "fax": "", "locationFeatures": null, "openingHours": {"mondayOpen": "09:00", "mondayClose": "20:00", "tuesdayOpen": "09:00", "tuesdayClose": "20:00", "wednesdayOpen": "09:00", "wednesdayClose": "20:00", "thursdayOpen": "09:00", "thursdayClose": "21:00", "fridayOpen": "09:00", "fridayClose": "21:00", "saturdayOpen": "09:00", "saturdayClose": "21:00", "sundayOpen": "09:00", "sundayClose": "20:00"}, "operationalInfo": {"storeManager": "KIRSTY HALL", "areaRegion": "QLD7", "areaRegionMgr": "Kevin Gilbert", "regionZone": "QLD", "regionZoneMgr": "Mat Davey"}, "openingHoursExceptions": [], "isOpen": true, "openingDate": null, "closingDate": null, "cncEnabled": true, "cncStore": true}, {"locationID": 34256241, "brandID": 3, "storeID": 6222, "latitude": -27.455153, "longitude": 153.006767, "storeName": "Red Hill", "address": "152 Musgrave Road", "suburb": "Red Hill", "postcode": "4059", "state": "QLD", "phone": "(07) 3734 0849", "distance": 11.596, "fax": "", "locationFeatures": null, "openingHours": {"mondayOpen": "11:00", "mondayClose": "20:00", "tuesdayOpen": "11:00", "tuesdayClose": "20:00", "wednesdayOpen": "11:00", "wednesdayClose": "20:00", "thursdayOpen": "11:00", "thursdayClose": "21:00", "fridayOpen": "10:00", "fridayClose": "21:00", "saturdayOpen": "10:00", "saturdayClose": "21:00", "sundayOpen": "11:00", "sundayClose": "20:00"}, "operationalInfo": {"storeManager": "DONNA GRAHAM", "areaRegion": "QLD2CB", "areaRegionMgr": "Kellianne Doyle", "regionZone": "QLD", "regionZoneMgr": "Mat Davey"}, "openingHoursExceptions": [], "isOpen": true, "openingDate": null, "closingDate": null, "cncEnabled": true, "cncStore": true}, {"locationID": 34256295, "brandID": 3, "storeID": 6294, "latitude": -27.389259, "longitude": 153.049179, "storeName": "Wavell Heights", "address": "159-167 Hamilton Road", "suburb": "Wavell Heights", "postcode": "4012", "state": "QLD", "phone": "(07) 3734 0850", "distance": 11.613, "fax": "", "locationFeatures": null, "openingHours": {"mondayOpen": "10:00", "mondayClose": "20:00", "tuesdayOpen": "10:00", "tuesdayClose": "20:00", "wednesdayOpen": "10:00", "wednesdayClose": "20:00", "thursdayOpen": "10:00", "thursdayClose": "21:00", "fridayOpen": "10:00", "fridayClose": "21:00", "saturdayOpen": "10:00", "saturdayClose": "21:00", "sundayOpen": "10:00", "sundayClose": "20:00"}, "operationalInfo": {"storeManager": "IVAYLO NEDYALKOV", "areaRegion": "QLD2CB", "areaRegionMgr": "Kellianne Doyle", "regionZone": "QLD", "regionZoneMgr": "Mat Davey"}, "openingHoursExceptions": [], "isOpen": true, "openingDate": null, "closingDate": null, "cncEnabled": true, "cncStore": true}, {"locationID": 34256074, "brandID": 3, "storeID": 6004, "latitude": -27.403211, "longitude": 153.031153, "storeName": "Kedron", "address": "346-366 Gympie Road", "suburb": "Kedron", "postcode": "4031", "state": "QLD", "phone": "(07) 3069 1580", "distance": 11.731, "fax": "", "locationFeatures": null, "openingHours": {"mondayOpen": "09:00", "mondayClose": "21:00", "tuesdayOpen": "09:00", "tuesdayClose": "21:00", "wednesdayOpen": "09:00", "wednesdayClose": "21:00", "thursdayOpen": "09:00", "thursdayClose": "21:00", "fridayOpen": "09:00", "fridayClose": "21:00", "saturdayOpen": "09:00", "saturdayClose": "21:00", "sundayOpen": "09:00", "sundayClose": "18:00"}, "operationalInfo": {"storeManager": "JOCK HADJION", "areaRegion": "QLD2CB", "areaRegionMgr": "Kellianne Doyle", "regionZone": "QLD", "regionZoneMgr": "Mat Davey"}, "openingHoursExceptions": [], "isOpen": true, "openingDate": null, "closingDate": null, "cncEnabled": true, "cncStore": true}, {"locationID": 34256009, "brandID": 3, "storeID": 5468, "latitude": -27.486253, "longitude": 153.006413, "storeName": "West End", "address": "168 Hardgrave Road", "suburb": "West End", "postcode": "4101", "state": "QLD", "phone": "(07) 3734 0891", "distance": 11.793, "fax": "", "locationFeatures": null, "openingHours": {"mondayOpen": "10:00", "mondayClose": "20:00", "tuesdayOpen": "10:00", "tuesdayClose": "20:00", "wednesdayOpen": "10:00", "wednesdayClose": "20:00", "thursdayOpen": "10:00", "thursdayClose": "20:00", "fridayOpen": "10:00", "fridayClose": "22:00", "saturdayOpen": "10:00", "saturdayClose": "22:00", "sundayOpen": "10:00", "sundayClose": "20:00"}, "operationalInfo": {"storeManager": "TRACI LEA HAMPSTEAD", "areaRegion": "QLD1CB", "areaRegionMgr": "Matthue Woods", "regionZone": "QLD", "regionZoneMgr": "Mat Davey"}, "openingHoursExceptions": [], "isOpen": true, "openingDate": null, "closingDate": null, "cncEnabled": true, "cncStore": true}, {"locationID": 34256088, "brandID": 3, "storeID": 6079, "latitude": -27.468931, "longitude": 153.002931, "storeName": "Milton Village", "address": "12-36 Baroona Road", "suburb": "Milton", "postcode": "4064", "state": "QLD", "phone": "(07) 3726 9657", "distance": 11.871, "fax": "", "locationFeatures": null, "openingHours": {"mondayOpen": "10:00", "mondayClose": "21:00", "tuesdayOpen": "10:00", "tuesdayClose": "21:00", "wednesdayOpen": "10:00", "wednesdayClose": "21:00", "thursdayOpen": "10:00", "thursdayClose": "21:00", "fridayOpen": "10:00", "fridayClose": "22:00", "saturdayOpen": "10:00", "saturdayClose": "22:00", "sundayOpen": "10:00", "sundayClose": "21:00"}, "operationalInfo": {"storeManager": "TY JAQUES", "areaRegion": "QLD2CB", "areaRegionMgr": "Kellianne Doyle", "regionZone": "QLD", "regionZoneMgr": "Mat Davey"}, "openingHoursExceptions": [], "isOpen": true, "openingDate": null, "closingDate": null, "cncEnabled": true, "cncStore": true}, {"locationID": 34256410, "brandID": 3, "storeID": 6540, "latitude": -27.562689, "longitude": 153.082112, "storeName": "Garden City", "address": "2049 Logan Road", "suburb": "Upper Mount Gravatt", "postcode": "4122", "state": "QLD", "phone": "(07) 3734 0854", "distance": 11.943, "fax": "", "locationFeatures": null, "openingHours": {"mondayOpen": "09:00", "mondayClose": "20:00", "tuesdayOpen": "09:00", "tuesdayClose": "20:00", "wednesdayOpen": "09:00", "wednesdayClose": "20:00", "thursdayOpen": "09:00", "thursdayClose": "21:00", "fridayOpen": "09:00", "fridayClose": "20:00", "saturdayOpen": "09:00", "saturdayClose": "20:00", "sundayOpen": "09:00", "sundayClose": "18:00"}, "operationalInfo": {"storeManager": "JOHN HENWOOD", "areaRegion": "QNS7", "areaRegionMgr": "Ben Harris", "regionZone": "QNS", "regionZoneMgr": "Adam Hill"}, "openingHoursExceptions": [], "isOpen": true, "openingDate": null, "closingDate": null, "cncEnabled": true, "cncStore": true}, {"locationID": 34256423, "brandID": 3, "storeID": 6611, "latitude": -27.502243, "longitude": 153.005813, "storeName": "St Lucia", "address": "222 Hawken Drive", "suburb": "St Lucia", "postcode": "4067", "state": "QLD", "phone": "(07) 3734 0856", "distance": 12.312, "fax": "", "locationFeatures": null, "openingHours": {"mondayOpen": "10:00", "mondayClose": "20:00", "tuesdayOpen": "10:00", "tuesdayClose": "20:00", "wednesdayOpen": "10:00", "wednesdayClose": "20:00", "thursdayOpen": "10:00", "thursdayClose": "21:00", "fridayOpen": "10:00", "fridayClose": "21:00", "saturdayOpen": "10:00", "saturdayClose": "21:00", "sundayOpen": "10:00", "sundayClose": "21:00"}, "operationalInfo": {"storeManager": "JAMIE LEE COSGROVE", "areaRegion": "QLD1CB", "areaRegionMgr": "Matthue Woods", "regionZone": "QLD", "regionZoneMgr": "Mat Davey"}, "openingHoursExceptions": [], "isOpen": true, "openingDate": null, "closingDate": null, "cncEnabled": true, "cncStore": true}, {"locationID": 34256336, "brandID": 3, "storeID": 6664, "latitude": -27.458331, "longitude": 152.995581, "storeName": "Paddington", "address": "147 Latrobe Terrace", "suburb": "Paddington", "postcode": "4064", "state": "QLD", "phone": "(07) 3734 0862", "distance": 12.518, "fax": "", "locationFeatures": null, "openingHours": {"mondayOpen": "10:00", "mondayClose": "21:00", "tuesdayOpen": "10:00", "tuesdayClose": "21:00", "wednesdayOpen": "10:00", "wednesdayClose": "21:00", "thursdayOpen": "10:00", "thursdayClose": "21:00", "fridayOpen": "10:00", "fridayClose": "21:00", "saturdayOpen": "10:00", "saturdayClose": "21:00", "sundayOpen": "10:00", "sundayClose": "21:00"}, "operationalInfo": {"storeManager": "MICHAEL EXLEY", "areaRegion": "QLD2CB", "areaRegionMgr": "Kellianne Doyle", "regionZone": "QLD", "regionZoneMgr": "Mat Davey"}, "openingHoursExceptions": [], "isOpen": true, "openingDate": null, "closingDate": null, "cncEnabled": true, "cncStore": true}, {"locationID": 34256158, "brandID": 3, "storeID": 6091, "latitude": -27.57746, "longitude": 153.113921, "storeName": "Rochedale", "address": "329 Gardner Road", "suburb": "Rochedale", "postcode": "4123", "state": "QLD", "phone": "(07) 3182 9480", "distance": 12.666, "fax": "", "locationFeatures": null, "openingHours": {"mondayOpen": "09:00", "mondayClose": "20:00", "tuesdayOpen": "09:00", "tuesdayClose": "20:00", "wednesdayOpen": "09:00", "wednesdayClose": "20:00", "thursdayOpen": "09:00", "thursdayClose": "21:00", "fridayOpen": "09:00", "fridayClose": "21:00", "saturdayOpen": "09:00", "saturdayClose": "21:00", "sundayOpen": "09:00", "sundayClose": "18:00"}, "operationalInfo": {"storeManager": "SAMANTHA DILLON", "areaRegion": "QNS7", "areaRegionMgr": "Ben Harris", "regionZone": "QNS", "regionZoneMgr": "Adam Hill"}, "openingHoursExceptions": [], "isOpen": true, "openingDate": null, "closingDate": null, "cncEnabled": true, "cncStore": true}, {"locationID": 34255948, "brandID": 3, "storeID": 8368, "latitude": -27.526484, "longitude": 153.268425, "storeName": "Cleveland Sands Bottleshop", "address": "82-100 Middle Street", "suburb": "Cleveland", "postcode": "4163", "state": "QLD", "phone": "(07) 3734 0870", "distance": 12.729, "fax": "", "locationFeatures": null, "openingHours": {"mondayOpen": "09:00", "mondayClose": "19:00", "tuesdayOpen": "09:00", "tuesdayClose": "19:00", "wednesdayOpen": "09:00", "wednesdayClose": "19:00", "thursdayOpen": "09:00", "thursdayClose": "19:00", "fridayOpen": "09:00", "fridayClose": "20:00", "saturdayOpen": "09:00", "saturdayClose": "20:00", "sundayOpen": "09:00", "sundayClose": "18:00"}, "operationalInfo": {"storeManager": "PHILLIP JOHNSON", "areaRegion": "QNS7", "areaRegionMgr": "Ben Harris", "regionZone": "QNS", "regionZoneMgr": "Adam Hill"}, "openingHoursExceptions": [], "isOpen": true, "openingDate": null, "closingDate": null, "cncEnabled": true, "cncStore": true}, {"locationID": 34255949, "brandID": 3, "storeID": 8369, "latitude": -27.526484, "longitude": 153.268425, "storeName": "Cleveland Harbourside Bottleshop", "address": "82-100 Middle Street", "suburb": "Cleveland", "postcode": "4163", "state": "QLD", "phone": "(07) 3734 0871", "distance": 12.729, "fax": "", "locationFeatures": null, "openingHours": {"mondayOpen": "09:00", "mondayClose": "19:00", "tuesdayOpen": "09:00", "tuesdayClose": "19:00", "wednesdayOpen": "09:00", "wednesdayClose": "19:00", "thursdayOpen": "09:00", "thursdayClose": "19:00", "fridayOpen": "09:00", "fridayClose": "20:00", "saturdayOpen": "09:00", "saturdayClose": "20:00", "sundayOpen": "09:00", "sundayClose": "18:00"}, "operationalInfo": {"storeManager": "ROWENA MCCULLOCH", "areaRegion": "QNS7", "areaRegionMgr": "Ben Harris", "regionZone": "QNS", "regionZoneMgr": "Adam Hill"}, "openingHoursExceptions": [], "isOpen": true, "openingDate": null, "closingDate": null, "cncEnabled": true, "cncStore": true}, {"locationID": 34256043, "brandID": 3, "storeID": 2488, "latitude": -27.485028, "longitude": 152.992567, "storeName": "Toowong", "address": "9 Sherwood Road", "suburb": "Toowong", "postcode": "4066", "state": "QLD", "phone": "(07) 3734 0886", "distance": 12.93, "fax": "", "locationFeatures": null, "openingHours": {"mondayOpen": "10:00", "mondayClose": "20:00", "tuesdayOpen": "10:00", "tuesdayClose": "20:00", "wednesdayOpen": "10:00", "wednesdayClose": "20:00", "thursdayOpen": "09:00", "thursdayClose": "21:00", "fridayOpen": "09:00", "fridayClose": "21:00", "saturdayOpen": "09:00", "saturdayClose": "21:00", "sundayOpen": "09:00", "sundayClose": "18:00"}, "operationalInfo": {"storeManager": "LUKE SMART", "areaRegion": "QLD1CB", "areaRegionMgr": "Matthue Woods", "regionZone": "QLD", "regionZoneMgr": "Mat Davey"}, "openingHoursExceptions": [], "isOpen": true, "openingDate": null, "closingDate": null, "cncEnabled": true, "cncStore": true}, {"locationID": 34256306, "brandID": 3, "storeID": 6472, "latitude": -27.424107, "longitude": 152.999613, "storeName": "Alderley", "address": "34 South Pine Road", "suburb": "Alderley", "postcode": "4051", "state": "QLD", "phone": "(07) 3550 2580", "distance": 12.996, "fax": "", "locationFeatures": null, "openingHours": {"mondayOpen": "09:00", "mondayClose": "21:00", "tuesdayOpen": "09:00", "tuesdayClose": "21:00", "wednesdayOpen": "09:00", "wednesdayClose": "21:00", "thursdayOpen": "09:00", "thursdayClose": "21:00", "fridayOpen": "09:00", "fridayClose": "21:00", "saturdayOpen": "09:00", "saturdayClose": "21:00", "sundayOpen": "09:00", "sundayClose": "18:00"}, "operationalInfo": {"storeManager": "LAURENCE RUDDLE", "areaRegion": "QLD2CB", "areaRegionMgr": "Kellianne Doyle", "regionZone": "QLD", "regionZoneMgr": "Mat Davey"}, "openingHoursExceptions": [], "isOpen": true, "openingDate": null, "closingDate": null, "cncEnabled": true, "cncStore": true}, {"locationID": 34256186, "brandID": 3, "storeID": 8670, "latitude": -27.501606, "longitude": 152.996858, "storeName": "Ironside", "address": "28 Hawken Drive", "suburb": "St Lucia", "postcode": "4067", "state": "QLD", "phone": "(07) 3734 0882", "distance": 13.013, "fax": "", "locationFeatures": null, "openingHours": {"mondayOpen": "10:00", "mondayClose": "20:00", "tuesdayOpen": "10:00", "tuesdayClose": "20:00", "wednesdayOpen": "10:00", "wednesdayClose": "20:00", "thursdayOpen": "10:00", "thursdayClose": "20:00", "fridayOpen": "10:00", "fridayClose": "21:00", "saturdayOpen": "10:00", "saturdayClose": "21:00", "sundayOpen": "10:00", "sundayClose": "20:00"}, "operationalInfo": {"storeManager": "IAN SPLATT", "areaRegion": "QLD1CB", "areaRegionMgr": "Matthue Woods", "regionZone": "QLD", "regionZoneMgr": "Mat Davey"}, "openingHoursExceptions": [], "isOpen": true, "openingDate": null, "closingDate": null, "cncEnabled": true, "cncStore": true}, {"locationID": 34256422, "brandID": 3, "storeID": 6609, "latitude": -27.571469, "longitude": 153.063142, "storeName": "Sunnybank", "address": "358 Mains And Mccullough Streets", "suburb": "Sunnybank", "postcode": "4109", "state": "QLD", "phone": "(07) 3726 9684", "distance": 13.558, "fax": "", "locationFeatures": null, "openingHours": {"mondayOpen": "09:00", "mondayClose": "20:00", "tuesdayOpen": "09:00", "tuesdayClose": "20:00", "wednesdayOpen": "09:00", "wednesdayClose": "20:00", "thursdayOpen": "09:00", "thursdayClose": "21:00", "fridayOpen": "09:00", "fridayClose": "21:00", "saturdayOpen": "09:00", "saturdayClose": "20:00", "sundayOpen": "09:00", "sundayClose": "18:00"}, "operationalInfo": {"storeManager": "DANIEL BROWNE", "areaRegion": "QNS7", "areaRegionMgr": "Ben Harris", "regionZone": "QNS", "regionZoneMgr": "Adam Hill"}, "openingHoursExceptions": [], "isOpen": true, "openingDate": null, "closingDate": null, "cncEnabled": true, "cncStore": true}, {"locationID": 34255941, "brandID": 3, "storeID": 8339, "latitude": -27.422718, "longitude": 152.990481, "storeName": "Enoggera", "address": "318 Wardell Street", "suburb": "Enoggera", "postcode": "4051", "state": "QLD", "phone": "(07) 3734 0868", "distance": 13.779, "fax": "", "locationFeatures": null, "openingHours": {"mondayOpen": "09:00", "mondayClose": "20:00", "tuesdayOpen": "09:00", "tuesdayClose": "20:00", "wednesdayOpen": "09:00", "wednesdayClose": "20:00", "thursdayOpen": "09:00", "thursdayClose": "21:00", "fridayOpen": "09:00", "fridayClose": "21:00", "saturdayOpen": "09:00", "saturdayClose": "21:00", "sundayOpen": "09:00", "sundayClose": "19:00"}, "operationalInfo": {"storeManager": "JASON MARCH", "areaRegion": "QLD2CB", "areaRegionMgr": "Kellianne Doyle", "regionZone": "QLD", "regionZoneMgr": "Mat Davey"}, "openingHoursExceptions": [], "isOpen": true, "openingDate": null, "closingDate": null, "cncEnabled": true, "cncStore": true}, {"locationID": 34256011, "brandID": 3, "storeID": 8375, "latitude": -27.39519, "longitude": 152.997682, "storeName": "Everton Park Hotel Barn", "address": "101 Flockton Street", "suburb": "Everton Park", "postcode": "4053", "state": "QLD", "phone": "(07) 3726 9626", "distance": 14.593, "fax": "", "locationFeatures": null, "openingHours": {"mondayOpen": "10:00", "mondayClose": "20:00", "tuesdayOpen": "10:00", "tuesdayClose": "20:00", "wednesdayOpen": "10:00", "wednesdayClose": "20:00", "thursdayOpen": "10:00", "thursdayClose": "21:00", "fridayOpen": "10:00", "fridayClose": "21:00", "saturdayOpen": "10:00", "saturdayClose": "21:00", "sundayOpen": "10:00", "sundayClose": "19:00"}, "operationalInfo": {"storeManager": "ANTHONY SOMMERS", "areaRegion": "QLD2CB", "areaRegionMgr": "Kellianne Doyle", "regionZone": "QLD", "regionZoneMgr": "Mat Davey"}, "openingHoursExceptions": [], "isOpen": true, "openingDate": null, "closingDate": null, "cncEnabled": true, "cncStore": true}, {"locationID": 34256171, "brandID": 3, "storeID": 6123, "latitude": -27.596542, "longitude": 153.124738, "storeName": "Rochedale Cellars", "address": "549-563 Underwood Road", "suburb": "Rochedale", "postcode": "4123", "state": "QLD", "phone": "(07) 3726 9603", "distance": 14.633, "fax": "", "locationFeatures": null, "openingHours": {"mondayOpen": "09:00", "mondayClose": "20:00", "tuesdayOpen": "09:00", "tuesdayClose": "20:00", "wednesdayOpen": "09:00", "wednesdayClose": "20:00", "thursdayOpen": "09:00", "thursdayClose": "21:00", "fridayOpen": "09:00", "fridayClose": "21:00", "saturdayOpen": "09:00", "saturdayClose": "21:00", "sundayOpen": "09:00", "sundayClose": "19:00"}, "operationalInfo": {"storeManager": "ROBERT ALI", "areaRegion": "QNS7", "areaRegionMgr": "Ben Harris", "regionZone": "QNS", "regionZoneMgr": "Adam Hill"}, "openingHoursExceptions": [], "isOpen": true, "openingDate": null, "closingDate": null, "cncEnabled": true, "cncStore": true}, {"locationID": 34256323, "brandID": 3, "storeID": 6629, "latitude": -27.49839, "longitude": 152.972979, "storeName": "Indooroopilly", "address": "Moggill Road", "suburb": "Indooroopilly", "postcode": "4068", "state": "QLD", "phone": "(07) 3720 3480", "distance": 14.873, "fax": "", "locationFeatures": null, "openingHours": {"mondayOpen": "09:00", "mondayClose": "21:00", "tuesdayOpen": "09:00", "tuesdayClose": "21:00", "wednesdayOpen": "09:00", "wednesdayClose": "21:00", "thursdayOpen": "09:00", "thursdayClose": "22:00", "fridayOpen": "09:00", "fridayClose": "21:00", "saturdayOpen": "09:00", "saturdayClose": "21:00", "sundayOpen": "09:00", "sundayClose": "18:00"}, "operationalInfo": {"storeManager": "EMILY NANCARROW", "areaRegion": "QLD1CB", "areaRegionMgr": "Matthue Woods", "regionZone": "QLD", "regionZoneMgr": "Mat Davey"}, "openingHoursExceptions": [], "isOpen": true, "openingDate": null, "closingDate": null, "cncEnabled": true, "cncStore": true}, {"locationID": 34256242, "brandID": 3, "storeID": 6231, "latitude": -27.350507, "longitude": 153.048723, "storeName": "Taigum Barn", "address": "217 Beams Road", "suburb": "Taigum", "postcode": "4018", "state": "QLD", "phone": "(07) 3726 9670", "distance": 15.074, "fax": "", "locationFeatures": null, "openingHours": {"mondayOpen": "10:00", "mondayClose": "20:00", "tuesdayOpen": "10:00", "tuesdayClose": "20:00", "wednesdayOpen": "10:00", "wednesdayClose": "20:00", "thursdayOpen": "10:00", "thursdayClose": "21:00", "fridayOpen": "10:00", "fridayClose": "21:00", "saturdayOpen": "10:00", "saturdayClose": "21:00", "sundayOpen": "10:00", "sundayClose": "20:00"}, "operationalInfo": {"storeManager": "DYLAN LITTLE", "areaRegion": "QLD7", "areaRegionMgr": "Kevin Gilbert", "regionZone": "QLD", "regionZoneMgr": "Mat Davey"}, "openingHoursExceptions": [], "isOpen": true, "openingDate": null, "closingDate": null, "cncEnabled": true, "cncStore": true}, {"locationID": 34256299, "brandID": 3, "storeID": 6324, "latitude": -27.40879, "longitude": 152.979984, "storeName": "Brookside", "address": "Osborne Road", "suburb": "Mitchelton", "postcode": "4053", "state": "QLD", "phone": "(07) 3513 9280", "distance": 15.199, "fax": "", "locationFeatures": null, "openingHours": {"mondayOpen": "09:00", "mondayClose": "21:00", "tuesdayOpen": "09:00", "tuesdayClose": "21:00", "wednesdayOpen": "09:00", "wednesdayClose": "21:00", "thursdayOpen": "09:00", "thursdayClose": "21:00", "fridayOpen": "09:00", "fridayClose": "21:00", "saturdayOpen": "09:00", "saturdayClose": "20:00", "sundayOpen": "09:00", "sundayClose": "18:00"}, "operationalInfo": {"storeManager": "TORY BUTEUX", "areaRegion": "QLD2CB", "areaRegionMgr": "Kellianne Doyle", "regionZone": "QLD", "regionZoneMgr": "Mat Davey"}, "openingHoursExceptions": [], "isOpen": true, "openingDate": null, "closingDate": null, "cncEnabled": true, "cncStore": true}, {"locationID": 34256335, "brandID": 3, "storeID": 6663, "latitude": -27.532431, "longitude": 152.981618, "storeName": "Sherwood", "address": "672 Sherwood Road", "suburb": "Sherwood", "postcode": "4075", "state": "QLD", "phone": "(07) 3734 0861", "distance": 15.569, "fax": "", "locationFeatures": null, "openingHours": {"mondayOpen": "10:00", "mondayClose": "20:00", "tuesdayOpen": "10:00", "tuesdayClose": "20:00", "wednesdayOpen": "10:00", "wednesdayClose": "20:00", "thursdayOpen": "10:00", "thursdayClose": "20:00", "fridayOpen": "10:00", "fridayClose": "21:00", "saturdayOpen": "10:00", "saturdayClose": "21:00", "sundayOpen": "10:00", "sundayClose": "19:00"}, "operationalInfo": {"storeManager": "JAMES HISCOCK", "areaRegion": "QLD1CB", "areaRegionMgr": "Matthue Woods", "regionZone": "QLD", "regionZoneMgr": "Mat Davey"}, "openingHoursExceptions": [], "isOpen": true, "openingDate": null, "closingDate": null, "cncEnabled": true, "cncStore": true}, {"locationID": 34256318, "brandID": 3, "storeID": 6621, "latitude": -27.36152, "longitude": 153.013022, "storeName": "Aspley", "address": "59 Albany Creek", "suburb": "Aspley", "postcode": "4034", "state": "QLD", "phone": "(07) 3726 9602", "distance": 15.973, "fax": "", "locationFeatures": null, "openingHours": {"mondayOpen": "09:00", "mondayClose": "21:00", "tuesdayOpen": "09:00", "tuesdayClose": "21:00", "wednesdayOpen": "09:00", "wednesdayClose": "21:00", "thursdayOpen": "09:00", "thursdayClose": "21:00", "fridayOpen": "09:00", "fridayClose": "21:00", "saturdayOpen": "09:00", "saturdayClose": "21:00", "sundayOpen": "09:00", "sundayClose": "18:00"}, "operationalInfo": {"storeManager": "CHRISTY CRUICKSHANK", "areaRegion": "QLD7", "areaRegionMgr": "Kevin Gilbert", "regionZone": "QLD", "regionZoneMgr": "Mat Davey"}, "openingHoursExceptions": [], "isOpen": true, "openingDate": null, "closingDate": null, "cncEnabled": true, "cncStore": true}, {"locationID": 34256325, "brandID": 3, "storeID": 6638, "latitude": -27.60752, "longitude": 153.110493, "storeName": "Kuraby", "address": "21 Kingston Road", "suburb": "Underwood", "postcode": "4119", "state": "QLD", "phone": "(07) 3726 9614", "distance": 16.007, "fax": "", "locationFeatures": null, "openingHours": {"mondayOpen": "10:00", "mondayClose": "19:00", "tuesdayOpen": "10:00", "tuesdayClose": "19:00", "wednesdayOpen": "10:00", "wednesdayClose": "19:00", "thursdayOpen": "10:00", "thursdayClose": "20:00", "fridayOpen": "10:00", "fridayClose": "20:00", "saturdayOpen": "10:00", "saturdayClose": "20:00", "sundayOpen": "10:00", "sundayClose": "19:00"}, "operationalInfo": {"storeManager": "SARAH MADDEN", "areaRegion": "QNS7", "areaRegionMgr": "Ben Harris", "regionZone": "QNS", "regionZoneMgr": "Adam Hill"}, "openingHoursExceptions": [], "isOpen": true, "openingDate": null, "closingDate": null, "cncEnabled": true, "cncStore": true}, {"locationID": 34256403, "brandID": 3, "storeID": 6531, "latitude": -27.341742, "longitude": 153.042584, "storeName": "Taigum Village", "address": "320 Roghan Road", "suburb": "Taigum", "postcode": "4018", "state": "QLD", "phone": "(07) 3624 3080", "distance": 16.179, "fax": "", "locationFeatures": null, "openingHours": {"mondayOpen": "09:00", "mondayClose": "21:00", "tuesdayOpen": "09:00", "tuesdayClose": "21:00", "wednesdayOpen": "09:00", "wednesdayClose": "21:00", "thursdayOpen": "09:00", "thursdayClose": "21:00", "fridayOpen": "09:00", "fridayClose": "21:00", "saturdayOpen": "09:00", "saturdayClose": "21:00", "sundayOpen": "09:00", "sundayClose": "19:00"}, "operationalInfo": {"storeManager": "SAROJ BUDHATHOKI", "areaRegion": "QLD7", "areaRegionMgr": "Kevin Gilbert", "regionZone": "QLD", "regionZoneMgr": "Mat Davey"}, "openingHoursExceptions": [], "isOpen": true, "openingDate": null, "closingDate": null, "cncEnabled": true, "cncStore": true}, {"locationID": 34256331, "brandID": 3, "storeID": 6649, "latitude": -27.445695, "longitude": 152.952585, "storeName": "The Gap", "address": "992 Water Works Road", "suburb": "The Gap", "postcode": "4061", "state": "QLD", "phone": "(07) 3734 0859", "distance": 16.31, "fax": "", "locationFeatures": null, "openingHours": {"mondayOpen": "09:00", "mondayClose": "20:00", "tuesdayOpen": "09:00", "tuesdayClose": "20:00", "wednesdayOpen": "09:00", "wednesdayClose": "20:00", "thursdayOpen": "09:00", "thursdayClose": "21:00", "fridayOpen": "09:00", "fridayClose": "21:00", "saturdayOpen": "09:00", "saturdayClose": "20:00", "sundayOpen": "09:00", "sundayClose": "18:00"}, "operationalInfo": {"storeManager": "TALJINDER SINGH", "areaRegion": "QLD2CB", "areaRegionMgr": "Kellianne Doyle", "regionZone": "QLD", "regionZoneMgr": "Mat Davey"}, "openingHoursExceptions": [], "isOpen": true, "openingDate": null, "closingDate": null, "cncEnabled": true, "cncStore": true}, {"locationID": 34256330, "brandID": 3, "storeID": 6648, "latitude": -27.611762, "longitude": 153.124447, "storeName": "Springwood", "address": "17-25 Cinderalla Road", "suburb": "Springwood", "postcode": "4127", "state": "QLD", "phone": "(07) 3726 9681", "distance": 16.32, "fax": "", "locationFeatures": null, "openingHours": {"mondayOpen": "09:00", "mondayClose": "20:00", "tuesdayOpen": "09:00", "tuesdayClose": "20:00", "wednesdayOpen": "09:00", "wednesdayClose": "20:00", "thursdayOpen": "09:00", "thursdayClose": "20:00", "fridayOpen": "09:00", "fridayClose": "20:00", "saturdayOpen": "09:00", "saturdayClose": "20:00", "sundayOpen": "09:00", "sundayClose": "18:00"}, "operationalInfo": {"storeManager": "SHARON OLSON", "areaRegion": "QNS7", "areaRegionMgr": "Ben Harris", "regionZone": "QNS", "regionZoneMgr": "Adam Hill"}, "openingHoursExceptions": [], "isOpen": true, "openingDate": null, "closingDate": null, "cncEnabled": true, "cncStore": true}, {"locationID": 34256352, "brandID": 3, "storeID": 6723, "latitude": -27.506585, "longitude": 152.948397, "storeName": "Kenmore Plaza Cellars", "address": "841 Moggill Road", "suburb": "Kenmore", "postcode": "4069", "state": "QLD", "phone": "(07) 3726 9609", "distance": 17.133, "fax": "", "locationFeatures": null, "openingHours": {"mondayOpen": "09:00", "mondayClose": "20:00", "tuesdayOpen": "09:00", "tuesdayClose": "20:00", "wednesdayOpen": "09:00", "wednesdayClose": "20:00", "thursdayOpen": "09:00", "thursdayClose": "21:00", "fridayOpen": "09:00", "fridayClose": "21:00", "saturdayOpen": "09:00", "saturdayClose": "21:00", "sundayOpen": "10:00", "sundayClose": "19:00"}, "operationalInfo": {"storeManager": "MEGAN ADSETT", "areaRegion": "QLD1CB", "areaRegionMgr": "Matthue Woods", "regionZone": "QLD", "regionZoneMgr": "Mat Davey"}, "openingHoursExceptions": [], "isOpen": true, "openingDate": null, "closingDate": null, "cncEnabled": true, "cncStore": true}, {"locationID": 34256319, "brandID": 3, "storeID": 6622, "latitude": -27.611154, "longitude": 153.055622, "storeName": "Sunnybank Hills", "address": "Corner Calam Road And Compton Road", "suburb": "Sunnybank Hills", "postcode": "4109", "state": "QLD", "phone": "(07) 3712 5680", "distance": 17.783, "fax": "", "locationFeatures": null, "openingHours": {"mondayOpen": "09:00", "mondayClose": "20:00", "tuesdayOpen": "09:00", "tuesdayClose": "20:00", "wednesdayOpen": "09:00", "wednesdayClose": "20:00", "thursdayOpen": "09:00", "thursdayClose": "21:00", "fridayOpen": "09:00", "fridayClose": "21:00", "saturdayOpen": "09:00", "saturdayClose": "20:00", "sundayOpen": "09:00", "sundayClose": "18:00"}, "operationalInfo": {"storeManager": "MELODY VOLLER", "areaRegion": "QNS7", "areaRegionMgr": "Ben Harris", "regionZone": "QNS", "regionZoneMgr": "Adam Hill"}, "openingHoursExceptions": [], "isOpen": true, "openingDate": null, "closingDate": null, "cncEnabled": true, "cncStore": true}, {"locationID": 34256353, "brandID": 3, "storeID": 6726, "latitude": -27.506207, "longitude": 152.939, "storeName": "Kenmore Village", "address": "9 Brookfield Road", "suburb": "Brookfield", "postcode": "4069", "state": "QLD", "phone": "(07) 3726 9621", "distance": 17.896, "fax": "", "locationFeatures": null, "openingHours": {"mondayOpen": "09:00", "mondayClose": "20:00", "tuesdayOpen": "09:00", "tuesdayClose": "20:00", "wednesdayOpen": "09:00", "wednesdayClose": "20:00", "thursdayOpen": "09:00", "thursdayClose": "21:00", "fridayOpen": "09:00", "fridayClose": "21:00", "saturdayOpen": "09:00", "saturdayClose": "20:00", "sundayOpen": "09:00", "sundayClose": "18:00"}, "operationalInfo": {"storeManager": "", "areaRegion": "QLD1CB", "areaRegionMgr": "Matthue Woods", "regionZone": "QLD", "regionZoneMgr": "Mat Davey"}, "openingHoursExceptions": [], "isOpen": true, "openingDate": null, "closingDate": null, "cncEnabled": true, "cncStore": true}, {"locationID": 34255943, "brandID": 3, "storeID": 8341, "latitude": -27.586991, "longitude": 153.280756, "storeName": "Victoria Point", "address": "Corner Cleveland-Redland Bay Road And Bunker Road", "suburb": "Victoria Point", "postcode": "4165", "state": "QLD", "phone": "(07) 3734 0869", "distance": 17.949, "fax": "", "locationFeatures": null, "openingHours": {"mondayOpen": "09:00", "mondayClose": "18:00", "tuesdayOpen": "09:00", "tuesdayClose": "18:00", "wednesdayOpen": "09:00", "wednesdayClose": "18:00", "thursdayOpen": "09:00", "thursdayClose": "21:00", "fridayOpen": "09:00", "fridayClose": "19:00", "saturdayOpen": "09:00", "saturdayClose": "19:00", "sundayOpen": "09:00", "sundayClose": "18:00"}, "operationalInfo": {"storeManager": "TIMOTHY LITTLE", "areaRegion": "QNS7", "areaRegionMgr": "Ben Harris", "regionZone": "QNS", "regionZoneMgr": "Adam Hill"}, "openingHoursExceptions": [], "isOpen": true, "openingDate": null, "closingDate": null, "cncEnabled": true, "cncStore": true}, {"locationID": 34255944, "brandID": 3, "storeID": 8343, "latitude": -27.30612, "longitude": 153.063044, "storeName": "Brighton Barn", "address": "196 Brighton Terrace", "suburb": "Sandgate", "postcode": "4017", "state": "QLD", "phone": "(07) 3726 9646", "distance": 18.975, "fax": "", "locationFeatures": null, "openingHours": {"mondayOpen": "10:00", "mondayClose": "20:00", "tuesdayOpen": "10:00", "tuesdayClose": "20:00", "wednesdayOpen": "10:00", "wednesdayClose": "20:00", "thursdayOpen": "10:00", "thursdayClose": "21:00", "fridayOpen": "10:00", "fridayClose": "21:00", "saturdayOpen": "10:00", "saturdayClose": "21:00", "sundayOpen": "10:00", "sundayClose": "20:00"}, "operationalInfo": {"storeManager": "STEVEN HOBBS", "areaRegion": "QLD7", "areaRegionMgr": "Kevin Gilbert", "regionZone": "QLD", "regionZoneMgr": "Mat Davey"}, "openingHoursExceptions": [], "isOpen": true, "openingDate": null, "closingDate": null, "cncEnabled": true, "cncStore": true}, {"locationID": 34256015, "brandID": 3, "storeID": 8560, "latitude": -27.578058, "longitude": 152.973603, "storeName": "Inala Superstore", "address": "Corner Freeman Road And Rudd Street", "suburb": "Inala", "postcode": "4077", "state": "QLD", "phone": "(07) 3078 8600", "distance": 19.045, "fax": "", "locationFeatures": null, "openingHours": {"mondayOpen": "10:00", "mondayClose": "19:00", "tuesdayOpen": "10:00", "tuesdayClose": "19:00", "wednesdayOpen": "10:00", "wednesdayClose": "19:00", "thursdayOpen": "10:00", "thursdayClose": "20:00", "fridayOpen": "10:00", "fridayClose": "21:00", "saturdayOpen": "10:00", "saturdayClose": "21:00", "sundayOpen": "10:00", "sundayClose": "18:00"}, "operationalInfo": {"storeManager": "HARDEEP GILL", "areaRegion": "QLD8", "areaRegionMgr": "Konrad Kolmet (Secondment)", "regionZone": "QLD", "regionZoneMgr": "Mat Davey"}, "openingHoursExceptions": [], "isOpen": true, "openingDate": null, "closingDate": null, "cncEnabled": true, "cncStore": true}, {"locationID": 34256089, "brandID": 3, "storeID": 6080, "latitude": -27.559021, "longitude": 152.950912, "storeName": "Darra", "address": "Shop 9a, 166 Monier Road", "suburb": "Darra", "postcode": "4076", "state": "QLD", "phone": "(07) 3726 9611", "distance": 19.329, "fax": "", "locationFeatures": null, "openingHours": {"mondayOpen": "09:00", "mondayClose": "21:00", "tuesdayOpen": "09:00", "tuesdayClose": "21:00", "wednesdayOpen": "09:00", "wednesdayClose": "21:00", "thursdayOpen": "09:00", "thursdayClose": "21:00", "fridayOpen": "09:00", "fridayClose": "21:00", "saturdayOpen": "09:00", "saturdayClose": "21:00", "sundayOpen": "09:00", "sundayClose": "18:00"}, "operationalInfo": {"storeManager": "JOHN NORRIS", "areaRegion": "QNS6", "areaRegionMgr": "Ian Haines", "regionZone": "QNS", "regionZoneMgr": "Adam Hill"}, "openingHoursExceptions": [], "isOpen": true, "openingDate": null, "closingDate": null, "cncEnabled": true, "cncStore": true}, {"locationID": 34255945, "brandID": 3, "storeID": 8362, "latitude": -27.323075, "longitude": 153.010091, "storeName": "Bonny View Tavern", "address": "Corner Gympie Road And Griffiths Street", "suburb": "Bald Hills", "postcode": "4036", "state": "QLD", "phone": "(07) 3726 9624", "distance": 19.441, "fax": "", "locationFeatures": null, "openingHours": {"mondayOpen": "10:00", "mondayClose": "20:00", "tuesdayOpen": "10:00", "tuesdayClose": "20:00", "wednesdayOpen": "10:00", "wednesdayClose": "20:00", "thursdayOpen": "10:00", "thursdayClose": "20:00", "fridayOpen": "10:00", "fridayClose": "21:00", "saturdayOpen": "10:00", "saturdayClose": "21:00", "sundayOpen": "10:00", "sundayClose": "19:00"}, "operationalInfo": {"storeManager": "MARGOT WILLIAMS", "areaRegion": "QLD7", "areaRegionMgr": "Kevin Gilbert", "regionZone": "QLD", "regionZoneMgr": "Mat Davey"}, "openingHoursExceptions": [], "isOpen": true, "openingDate": null, "closingDate": null, "cncEnabled": true, "cncStore": true}, {"locationID": 34256185, "brandID": 3, "storeID": 8669, "latitude": -27.549647, "longitude": 152.93894, "storeName": "Mt Ommaney Centre", "address": "171 Dandenong Road", "suburb": "Mount Ommaney", "postcode": "4074", "state": "QLD", "phone": "(07) 3725 7280", "distance": 19.682, "fax": "", "locationFeatures": null, "openingHours": {"mondayOpen": "09:00", "mondayClose": "20:00", "tuesdayOpen": "09:00", "tuesdayClose": "20:00", "wednesdayOpen": "09:00", "wednesdayClose": "20:00", "thursdayOpen": "09:00", "thursdayClose": "21:00", "fridayOpen": "09:00", "fridayClose": "21:00", "saturdayOpen": "09:00", "saturdayClose": "19:00", "sundayOpen": "09:00", "sundayClose": "18:00"}, "operationalInfo": {"storeManager": "SHELBY COOK", "areaRegion": "QLD8", "areaRegionMgr": "Konrad Kolmet (Secondment)", "regionZone": "QLD", "regionZoneMgr": "Mat Davey"}, "openingHoursExceptions": [], "isOpen": true, "openingDate": null, "closingDate": null, "cncEnabled": true, "cncStore": true}, {"locationID": 34256239, "brandID": 3, "storeID": 6209, "latitude": -27.642843, "longitude": 153.117515, "storeName": "Logan City Centre", "address": "Corner Kingston Road And Wembley Road", "suburb": "Woodridge", "postcode": "4114", "state": "QLD", "phone": "(07) 3734 0848", "distance": 19.818, "fax": "", "locationFeatures": null, "openingHours": {"mondayOpen": "09:00", "mondayClose": "20:00", "tuesdayOpen": "09:00", "tuesdayClose": "20:00", "wednesdayOpen": "09:00", "wednesdayClose": "20:00", "thursdayOpen": "09:00", "thursdayClose": "20:00", "fridayOpen": "09:00", "fridayClose": "21:00", "saturdayOpen": "09:00", "saturdayClose": "21:00", "sundayOpen": "09:00", "sundayClose": "18:00"}, "operationalInfo": {"storeManager": "TERRY WARE", "areaRegion": "QNS6", "areaRegionMgr": "Ian Haines", "regionZone": "QNS", "regionZoneMgr": "Adam Hill"}, "openingHoursExceptions": [], "isOpen": true, "openingDate": null, "closingDate": null, "cncEnabled": true, "cncStore": true}, {"locationID": 34256419, "brandID": 3, "storeID": 6598, "latitude": -27.346669, "longitude": 152.968633, "storeName": "Albany Creek", "address": "700 Albany Creek Road", "suburb": "Albany Creek", "postcode": "4035", "state": "QLD", "phone": "(07) 3734 0855", "distance": 19.843, "fax": "", "locationFeatures": null, "openingHours": {"mondayOpen": "09:00", "mondayClose": "20:00", "tuesdayOpen": "09:00", "tuesdayClose": "20:00", "wednesdayOpen": "09:00", "wednesdayClose": "20:00", "thursdayOpen": "09:00", "thursdayClose": "20:00", "fridayOpen": "09:00", "fridayClose": "20:00", "saturdayOpen": "09:00", "saturdayClose": "20:00", "sundayOpen": "09:00", "sundayClose": "18:00"}, "operationalInfo": {"storeManager": "TAMARA GORTMANS", "areaRegion": "QLD7", "areaRegionMgr": "Kevin Gilbert", "regionZone": "QLD", "regionZoneMgr": "Mat Davey"}, "openingHoursExceptions": [], "isOpen": true, "openingDate": null, "closingDate": null, "cncEnabled": true, "cncStore": true}, {"locationID": 34256184, "brandID": 3, "storeID": 8644, "latitude": -27.644038, "longitude": 153.153677, "storeName": "Daisy Hill Liquor King", "address": "4-14 Alamanda Drive", "suburb": "Daisy Hill", "postcode": "4127", "state": "QLD", "phone": "(07) 3726 9692", "distance": 19.865, "fax": "", "locationFeatures": null, "openingHours": {"mondayOpen": "10:00", "mondayClose": "19:00", "tuesdayOpen": "10:00", "tuesdayClose": "19:00", "wednesdayOpen": "10:00", "wednesdayClose": "19:00", "thursdayOpen": "10:00", "thursdayClose": "19:00", "fridayOpen": "10:00", "fridayClose": "20:00", "saturdayOpen": "10:00", "saturdayClose": "20:00", "sundayOpen": "10:00", "sundayClose": "16:00"}, "operationalInfo": {"storeManager": "BIANCAH STRONG", "areaRegion": "QNS6", "areaRegionMgr": "Ian Haines", "regionZone": "QNS", "regionZoneMgr": "Adam Hill"}, "openingHoursExceptions": [], "isOpen": true, "openingDate": null, "closingDate": null, "cncEnabled": true, "cncStore": true}]