[{"locationID": 34256339, "brandID": 3, "storeID": 6676, "latitude": -27.076538, "longitude": 153.157125, "storeName": "Welsby", "address": "91 Welsby Parade", "suburb": "Bongaree", "postcode": "4507", "state": "QLD", "phone": "(07) 3726 9620", "distance": 0.564, "fax": "", "locationFeatures": null, "openingHours": {"mondayOpen": "09:00", "mondayClose": "19:00", "tuesdayOpen": "09:00", "tuesdayClose": "19:00", "wednesdayOpen": "09:00", "wednesdayClose": "19:00", "thursdayOpen": "09:00", "thursdayClose": "19:00", "fridayOpen": "09:00", "fridayClose": "19:00", "saturdayOpen": "09:00", "saturdayClose": "19:00", "sundayOpen": "09:00", "sundayClose": "19:00"}, "operationalInfo": {"storeManager": "NAOMI HARNEY", "areaRegion": "QLD6", "areaRegionMgr": "Lisa Hartnett", "regionZone": "QLD", "regionZoneMgr": "Mat Davey"}, "openingHoursExceptions": [], "isOpen": true, "openingDate": null, "closingDate": null, "cncEnabled": true, "cncStore": true}, {"locationID": 34256340, "brandID": 3, "storeID": 6677, "latitude": -27.063892, "longitude": 153.157385, "storeName": "Bribie Central", "address": "Goodwin Drive", "suburb": "Bribie Island", "postcode": "4507", "state": "QLD", "phone": "(07) 3726 9660", "distance": 1.018, "fax": "", "locationFeatures": null, "openingHours": {"mondayOpen": "09:00", "mondayClose": "20:00", "tuesdayOpen": "09:00", "tuesdayClose": "20:00", "wednesdayOpen": "09:00", "wednesdayClose": "20:00", "thursdayOpen": "09:00", "thursdayClose": "21:00", "fridayOpen": "09:00", "fridayClose": "21:00", "saturdayOpen": "09:00", "saturdayClose": "19:00", "sundayOpen": "09:00", "sundayClose": "19:00"}, "operationalInfo": {"storeManager": "TRACEY MARTIN", "areaRegion": "QLD6", "areaRegionMgr": "Lisa Hartnett", "regionZone": "QLD", "regionZoneMgr": "Mat Davey"}, "openingHoursExceptions": [], "isOpen": true, "openingDate": null, "closingDate": null, "cncEnabled": true, "cncStore": true}, {"locationID": 34256338, "brandID": 3, "storeID": 6674, "latitude": -27.057673, "longitude": 153.13853, "storeName": "Bribie Island Hotel Barn", "address": "29 Sylvan Beach Esplanade", "suburb": "Bribie Island", "postcode": "4507", "state": "QLD", "phone": "(07) 3726 9659", "distance": 2.547, "fax": "", "locationFeatures": null, "openingHours": {"mondayOpen": "10:00", "mondayClose": "20:00", "tuesdayOpen": "10:00", "tuesdayClose": "20:00", "wednesdayOpen": "10:00", "wednesdayClose": "20:00", "thursdayOpen": "10:00", "thursdayClose": "21:00", "fridayOpen": "10:00", "fridayClose": "22:00", "saturdayOpen": "10:00", "saturdayClose": "22:00", "sundayOpen": "10:00", "sundayClose": "20:00"}, "operationalInfo": {"storeManager": "PAUL BROWN", "areaRegion": "QLD6", "areaRegionMgr": "Lisa Hartnett", "regionZone": "QLD", "regionZoneMgr": "Mat Davey"}, "openingHoursExceptions": [], "isOpen": true, "openingDate": null, "closingDate": null, "cncEnabled": true, "cncStore": true}, {"locationID": 34256108, "brandID": 3, "storeID": 8618, "latitude": -27.085817, "longitude": 152.980059, "storeName": "Sundowner Hotel Barn", "address": "8 Aerodrome Road", "suburb": "Caboolture", "postcode": "4510", "state": "QLD", "phone": "(07) 3726 9656", "distance": 15.522, "fax": "", "locationFeatures": null, "openingHours": {"mondayOpen": "10:00", "mondayClose": "21:00", "tuesdayOpen": "10:00", "tuesdayClose": "21:00", "wednesdayOpen": "10:00", "wednesdayClose": "21:00", "thursdayOpen": "10:00", "thursdayClose": "21:00", "fridayOpen": "10:00", "fridayClose": "22:00", "saturdayOpen": "10:00", "saturdayClose": "22:00", "sundayOpen": "10:00", "sundayClose": "19:00"}, "operationalInfo": {"storeManager": "DEAN HINES", "areaRegion": "QLD6", "areaRegionMgr": "Lisa Hartnett", "regionZone": "QLD", "regionZoneMgr": "Mat Davey"}, "openingHoursExceptions": [], "isOpen": true, "openingDate": null, "closingDate": null, "cncEnabled": true, "cncStore": true}, {"locationID": 34256159, "brandID": 3, "storeID": 6093, "latitude": -27.042438, "longitude": 152.973922, "storeName": "Caboolture Big Fish", "address": "459 Pumicestone Road", "suburb": "Caboolture", "postcode": "4510", "state": "QLD", "phone": "(07) 5316 4180", "distance": 16.323, "fax": "", "locationFeatures": null, "openingHours": {"mondayOpen": "09:00", "mondayClose": "20:00", "tuesdayOpen": "09:00", "tuesdayClose": "20:00", "wednesdayOpen": "09:00", "wednesdayClose": "20:00", "thursdayOpen": "09:00", "thursdayClose": "21:00", "fridayOpen": "09:00", "fridayClose": "21:00", "saturdayOpen": "09:00", "saturdayClose": "21:00", "sundayOpen": "09:00", "sundayClose": "18:00"}, "operationalInfo": {"storeManager": "ROBERT MCPHERSON", "areaRegion": "QLD6", "areaRegionMgr": "Lisa Hartnett", "regionZone": "QLD", "regionZoneMgr": "Mat Davey"}, "openingHoursExceptions": [], "isOpen": true, "openingDate": null, "closingDate": null, "cncEnabled": true, "cncStore": true}, {"locationID": 34256177, "brandID": 3, "storeID": 8628, "latitude": -27.138681, "longitude": 152.98201, "storeName": "Burpengary Village Cellars", "address": "Corner Buckley Road And Uhlman Road", "suburb": "Burpengary", "postcode": "4505", "state": "QLD", "phone": "(07) 3726 9678", "distance": 16.962, "fax": "", "locationFeatures": null, "openingHours": {"mondayOpen": "10:00", "mondayClose": "19:00", "tuesdayOpen": "10:00", "tuesdayClose": "19:00", "wednesdayOpen": "10:00", "wednesdayClose": "20:00", "thursdayOpen": "10:00", "thursdayClose": "20:00", "fridayOpen": "10:00", "fridayClose": "21:00", "saturdayOpen": "10:00", "saturdayClose": "20:00", "sundayOpen": "10:00", "sundayClose": "19:00"}, "operationalInfo": {"storeManager": "KIEREN HACKETT", "areaRegion": "QLD6", "areaRegionMgr": "Lisa Hartnett", "regionZone": "QLD", "regionZoneMgr": "Mat Davey"}, "openingHoursExceptions": [], "isOpen": true, "openingDate": null, "closingDate": null, "cncEnabled": true, "cncStore": true}, {"locationID": 34256320, "brandID": 3, "storeID": 6623, "latitude": -27.220183, "longitude": 153.098217, "storeName": "Redcliffe", "address": "Corner Ashmole Road And Klingner Road", "suburb": "Redcliffe", "postcode": "4020", "state": "QLD", "phone": "(07) 3480 3180", "distance": 17.274, "fax": "", "locationFeatures": null, "openingHours": {"mondayOpen": "09:00", "mondayClose": "21:00", "tuesdayOpen": "09:00", "tuesdayClose": "21:00", "wednesdayOpen": "09:00", "wednesdayClose": "21:00", "thursdayOpen": "09:00", "thursdayClose": "21:00", "fridayOpen": "09:00", "fridayClose": "21:00", "saturdayOpen": "09:00", "saturdayClose": "21:00", "sundayOpen": "09:00", "sundayClose": "19:00"}, "operationalInfo": {"storeManager": "CONRAD SOO CHOON", "areaRegion": "QLD7", "areaRegionMgr": "Kevin Gilbert", "regionZone": "QLD", "regionZoneMgr": "Mat Davey"}, "openingHoursExceptions": [], "isOpen": true, "openingDate": null, "closingDate": null, "cncEnabled": true, "cncStore": true}, {"locationID": 34256109, "brandID": 3, "storeID": 8621, "latitude": -27.114955, "longitude": 152.963556, "storeName": "Glenwood Drive  Cellars", "address": "Lot 62 Glenwood Drive", "suburb": "Morayfield", "postcode": "4506", "state": "QLD", "phone": "(07) 3726 9622", "distance": 17.507, "fax": "", "locationFeatures": null, "openingHours": {"mondayOpen": "10:00", "mondayClose": "19:00", "tuesdayOpen": "10:00", "tuesdayClose": "19:00", "wednesdayOpen": "10:00", "wednesdayClose": "20:00", "thursdayOpen": "10:00", "thursdayClose": "20:00", "fridayOpen": "10:00", "fridayClose": "21:00", "saturdayOpen": "10:00", "saturdayClose": "20:00", "sundayOpen": "10:00", "sundayClose": "19:00"}, "operationalInfo": {"storeManager": "KOSTA DOUEIHI", "areaRegion": "QLD6", "areaRegionMgr": "Lisa Hartnett", "regionZone": "QLD", "regionZoneMgr": "Mat Davey"}, "openingHoursExceptions": [], "isOpen": true, "openingDate": null, "closingDate": null, "cncEnabled": true, "cncStore": true}, {"locationID": 34256408, "brandID": 3, "storeID": 6537, "latitude": -27.22939, "longitude": 153.106177, "storeName": "Redcliffe (anzac Ave)", "address": "82-98 Anzac Ave", "suburb": "Redcliffe", "postcode": "4020", "state": "QLD", "phone": "(07) 3726 9666", "distance": 18.061, "fax": "", "locationFeatures": null, "openingHours": {"mondayOpen": "09:00", "mondayClose": "20:00", "tuesdayOpen": "09:00", "tuesdayClose": "20:00", "wednesdayOpen": "09:00", "wednesdayClose": "20:00", "thursdayOpen": "09:00", "thursdayClose": "21:00", "fridayOpen": "09:00", "fridayClose": "21:00", "saturdayOpen": "09:00", "saturdayClose": "21:00", "sundayOpen": "09:00", "sundayClose": "19:00"}, "operationalInfo": {"storeManager": "GRANT PRYOR", "areaRegion": "QLD7", "areaRegionMgr": "Kevin Gilbert", "regionZone": "QLD", "regionZoneMgr": "Mat Davey"}, "openingHoursExceptions": [], "isOpen": true, "openingDate": null, "closingDate": null, "cncEnabled": true, "cncStore": true}, {"locationID": 34256329, "brandID": 3, "storeID": 6647, "latitude": -27.085146, "longitude": 152.948887, "storeName": "Caboolture", "address": "60-78 King Street", "suburb": "Caboolture", "postcode": "4510", "state": "QLD", "phone": "(07) 3726 9658", "distance": 18.165, "fax": "", "locationFeatures": null, "openingHours": {"mondayOpen": "09:00", "mondayClose": "19:00", "tuesdayOpen": "09:00", "tuesdayClose": "19:00", "wednesdayOpen": "09:00", "wednesdayClose": "19:00", "thursdayOpen": "09:00", "thursdayClose": "20:00", "fridayOpen": "09:00", "fridayClose": "20:00", "saturdayOpen": "09:00", "saturdayClose": "19:00", "sundayOpen": "10:00", "sundayClose": "15:00"}, "operationalInfo": {"storeManager": "MARK HOLSTEIN", "areaRegion": "QLD6", "areaRegionMgr": "Lisa Hartnett", "regionZone": "QLD", "regionZoneMgr": "Mat Davey"}, "openingHoursExceptions": [], "isOpen": true, "openingDate": null, "closingDate": null, "cncEnabled": true, "cncStore": true}, {"locationID": 34256234, "brandID": 3, "storeID": 6174, "latitude": -27.153418, "longitude": 152.975489, "storeName": "Burpengary", "address": "Corner Station Street And Progress Street", "suburb": "Burpengary", "postcode": "4505", "state": "QLD", "phone": "(07) 3734 0845", "distance": 18.216, "fax": "", "locationFeatures": null, "openingHours": {"mondayOpen": "09:00", "mondayClose": "20:00", "tuesdayOpen": "09:00", "tuesdayClose": "20:00", "wednesdayOpen": "09:00", "wednesdayClose": "20:00", "thursdayOpen": "09:00", "thursdayClose": "20:00", "fridayOpen": "09:00", "fridayClose": "21:00", "saturdayOpen": "09:00", "saturdayClose": "21:00", "sundayOpen": "09:00", "sundayClose": "19:00"}, "operationalInfo": {"storeManager": "LOUISE BOWDEN", "areaRegion": "QLD6", "areaRegionMgr": "Lisa Hartnett", "regionZone": "QLD", "regionZoneMgr": "Mat Davey"}, "openingHoursExceptions": [], "isOpen": true, "openingDate": null, "closingDate": null, "cncEnabled": true, "cncStore": true}, {"locationID": 34256233, "brandID": 3, "storeID": 6173, "latitude": -27.103775, "longitude": 152.950207, "storeName": "Morayfield (ll)", "address": "Morayfield Road", "suburb": "Morayfield", "postcode": "4506", "state": "QLD", "phone": "(07) 3726 9663", "distance": 18.33, "fax": "", "locationFeatures": null, "openingHours": {"mondayOpen": "09:00", "mondayClose": "18:00", "tuesdayOpen": "09:00", "tuesdayClose": "18:00", "wednesdayOpen": "09:00", "wednesdayClose": "18:00", "thursdayOpen": "09:00", "thursdayClose": "21:00", "fridayOpen": "09:00", "fridayClose": "19:00", "saturdayOpen": "09:00", "saturdayClose": "19:00", "sundayOpen": "09:00", "sundayClose": "18:00"}, "operationalInfo": {"storeManager": "FRANCES CRAWFORD", "areaRegion": "QLD6", "areaRegionMgr": "Lisa Hartnett", "regionZone": "QLD", "regionZoneMgr": "Mat Davey"}, "openingHoursExceptions": [], "isOpen": true, "openingDate": null, "closingDate": null, "cncEnabled": true, "cncStore": true}]