[{"locationID": 34256237, "brandID": 3, "storeID": 6203, "latitude": -27.899853, "longitude": 153.385617, "storeName": "Coombabah", "address": "21 Hansford Road", "suburb": "Coombabah", "postcode": "4216", "state": "QLD", "phone": "(07) 3734 0846", "distance": 2.049, "fax": "", "locationFeatures": null, "openingHours": {"mondayOpen": "10:00", "mondayClose": "19:00", "tuesdayOpen": "10:00", "tuesdayClose": "19:00", "wednesdayOpen": "10:00", "wednesdayClose": "19:00", "thursdayOpen": "10:00", "thursdayClose": "20:00", "fridayOpen": "10:00", "fridayClose": "20:00", "saturdayOpen": "10:00", "saturdayClose": "20:00", "sundayOpen": "10:00", "sundayClose": "19:00"}, "operationalInfo": {"storeManager": "TINA WILSON", "areaRegion": "QNS5", "areaRegionMgr": "Luke Pope (Secondment)", "regionZone": "QNS", "regionZoneMgr": "Adam Hill"}, "openingHoursExceptions": [], "isOpen": true, "openingDate": null, "closingDate": null, "cncEnabled": true, "cncStore": true}, {"locationID": 34256238, "brandID": 3, "storeID": 6204, "latitude": -27.951385, "longitude": 153.408099, "storeName": "Labrador", "address": "36 Frank Street", "suburb": "Labrador", "postcode": "4215", "state": "QLD", "phone": "(07) 3734 0847", "distance": 4.211, "fax": "", "locationFeatures": null, "openingHours": {"mondayOpen": "09:00", "mondayClose": "20:00", "tuesdayOpen": "09:00", "tuesdayClose": "20:00", "wednesdayOpen": "09:00", "wednesdayClose": "20:00", "thursdayOpen": "09:00", "thursdayClose": "20:00", "fridayOpen": "09:00", "fridayClose": "21:00", "saturdayOpen": "09:00", "saturdayClose": "21:00", "sundayOpen": "09:00", "sundayClose": "20:00"}, "operationalInfo": {"storeManager": "", "areaRegion": "QNS5", "areaRegionMgr": "Luke Pope (Secondment)", "regionZone": "QNS", "regionZoneMgr": "Adam Hill"}, "openingHoursExceptions": [], "isOpen": true, "openingDate": null, "closingDate": null, "cncEnabled": true, "cncStore": true}, {"locationID": 34256415, "brandID": 3, "storeID": 6545, "latitude": -27.878507, "longitude": 153.36488, "storeName": "Hope Island", "address": "87-97 Broadwater Avenue", "suburb": "Hope Island", "postcode": "4212", "state": "QLD", "phone": "(07) 3726 9619", "distance": 5.007, "fax": "", "locationFeatures": null, "openingHours": {"mondayOpen": "10:00", "mondayClose": "20:00", "tuesdayOpen": "10:00", "tuesdayClose": "20:00", "wednesdayOpen": "10:00", "wednesdayClose": "20:00", "thursdayOpen": "10:00", "thursdayClose": "20:00", "fridayOpen": "10:00", "fridayClose": "21:00", "saturdayOpen": "10:00", "saturdayClose": "21:00", "sundayOpen": "10:00", "sundayClose": "19:00"}, "operationalInfo": {"storeManager": "COREY GODWIN", "areaRegion": "QNS5", "areaRegionMgr": "Luke Pope (Secondment)", "regionZone": "QNS", "regionZoneMgr": "Adam Hill"}, "openingHoursExceptions": [], "isOpen": true, "openingDate": null, "closingDate": null, "cncEnabled": true, "cncStore": true}, {"locationID": 34256162, "brandID": 3, "storeID": 6098, "latitude": -27.968892, "longitude": 153.415689, "storeName": "Australia Fair", "address": "42 Marine Parade", "suburb": "Southport", "postcode": "4215", "state": "QLD", "phone": "(07) 5668 4980", "distance": 6.24, "fax": "", "locationFeatures": null, "openingHours": {"mondayOpen": "09:00", "mondayClose": "19:00", "tuesdayOpen": "09:00", "tuesdayClose": "19:00", "wednesdayOpen": "09:00", "wednesdayClose": "19:00", "thursdayOpen": "09:00", "thursdayClose": "20:00", "fridayOpen": "09:00", "fridayClose": "21:00", "saturdayOpen": "09:00", "saturdayClose": "21:00", "sundayOpen": "09:00", "sundayClose": "19:00"}, "operationalInfo": {"storeManager": "BLAKE CHAPMAN", "areaRegion": "QNS5", "areaRegionMgr": "Luke Pope (Secondment)", "regionZone": "QNS", "regionZoneMgr": "Adam Hill"}, "openingHoursExceptions": [], "isOpen": true, "openingDate": null, "closingDate": null, "cncEnabled": true, "cncStore": true}, {"locationID": 34256414, "brandID": 3, "storeID": 6544, "latitude": -27.925676, "longitude": 153.323704, "storeName": "Pacific Pines", "address": "2 Universal Street", "suburb": "Pacific Pines", "postcode": "4211", "state": "QLD", "phone": "(07) 3726 9696", "distance": 6.737, "fax": "", "locationFeatures": null, "openingHours": {"mondayOpen": "10:00", "mondayClose": "19:00", "tuesdayOpen": "10:00", "tuesdayClose": "19:00", "wednesdayOpen": "10:00", "wednesdayClose": "19:00", "thursdayOpen": "10:00", "thursdayClose": "20:00", "fridayOpen": "10:00", "fridayClose": "21:00", "saturdayOpen": "10:00", "saturdayClose": "21:00", "sundayOpen": "10:00", "sundayClose": "19:00"}, "operationalInfo": {"storeManager": "PAUL RANISAV", "areaRegion": "QNS5", "areaRegionMgr": "Luke Pope (Secondment)", "regionZone": "QNS", "regionZoneMgr": "Adam Hill"}, "openingHoursExceptions": [], "isOpen": true, "openingDate": null, "closingDate": null, "cncEnabled": true, "cncStore": true}, {"locationID": 34256421, "brandID": 3, "storeID": 6608, "latitude": -27.977818, "longitude": 153.380717, "storeName": "Ashmore", "address": "Corner Nerang-Southport Road And Currumburra Road", "suburb": "Ashmore", "postcode": "4214", "state": "QLD", "phone": "(07) 3726 9689", "distance": 7.32, "fax": "", "locationFeatures": null, "openingHours": {"mondayOpen": "09:00", "mondayClose": "19:00", "tuesdayOpen": "09:00", "tuesdayClose": "19:00", "wednesdayOpen": "09:00", "wednesdayClose": "19:00", "thursdayOpen": "09:00", "thursdayClose": "19:00", "fridayOpen": "09:00", "fridayClose": "21:00", "saturdayOpen": "09:00", "saturdayClose": "18:00", "sundayOpen": "10:00", "sundayClose": "18:00"}, "operationalInfo": {"storeManager": "", "areaRegion": "QNS5", "areaRegionMgr": "Luke Pope (Secondment)", "regionZone": "QNS", "regionZoneMgr": "Adam Hill"}, "openingHoursExceptions": [], "isOpen": true, "openingDate": null, "closingDate": null, "cncEnabled": true, "cncStore": true}, {"locationID": 34256405, "brandID": 3, "storeID": 6534, "latitude": -27.979797, "longitude": 153.425049, "storeName": "Main Beach", "address": "26-30 Tedder Avenue", "suburb": "Main Beach", "postcode": "4217", "state": "QLD", "phone": "(07) 3726 9688", "distance": 7.606, "fax": "", "locationFeatures": null, "openingHours": {"mondayOpen": "10:00", "mondayClose": "20:00", "tuesdayOpen": "10:00", "tuesdayClose": "20:00", "wednesdayOpen": "10:00", "wednesdayClose": "20:00", "thursdayOpen": "10:00", "thursdayClose": "20:00", "fridayOpen": "10:00", "fridayClose": "21:00", "saturdayOpen": "10:00", "saturdayClose": "21:00", "sundayOpen": "10:00", "sundayClose": "20:00"}, "operationalInfo": {"storeManager": "PHILIP UNDERWOOD", "areaRegion": "QNS5", "areaRegionMgr": "Luke Pope (Secondment)", "regionZone": "QNS", "regionZoneMgr": "Adam Hill"}, "openingHoursExceptions": [], "isOpen": true, "openingDate": null, "closingDate": null, "cncEnabled": true, "cncStore": true}, {"locationID": 34256075, "brandID": 3, "storeID": 6007, "latitude": -27.985491, "longitude": 153.410135, "storeName": "Southport Park", "address": "Cnr Ferry And Benowa Road", "suburb": "Southport", "postcode": "4215", "state": "QLD", "phone": "(07) 5635 5280", "distance": 7.999, "fax": "", "locationFeatures": null, "openingHours": {"mondayOpen": "09:00", "mondayClose": "20:00", "tuesdayOpen": "09:00", "tuesdayClose": "20:00", "wednesdayOpen": "09:00", "wednesdayClose": "20:00", "thursdayOpen": "09:00", "thursdayClose": "21:00", "fridayOpen": "09:00", "fridayClose": "21:00", "saturdayOpen": "09:00", "saturdayClose": "21:00", "sundayOpen": "10:00", "sundayClose": "18:00"}, "operationalInfo": {"storeManager": "DANA LALICH", "areaRegion": "QNS5", "areaRegionMgr": "Luke Pope (Secondment)", "regionZone": "QNS", "regionZoneMgr": "Adam Hill"}, "openingHoursExceptions": [], "isOpen": true, "openingDate": null, "closingDate": null, "cncEnabled": true, "cncStore": true}, {"locationID": 34256073, "brandID": 3, "storeID": 6003, "latitude": -27.92507, "longitude": 153.306145, "storeName": "Pacific Pines (pitcairn Way)", "address": "Corner Binstead Way And Pitcairn Way", "suburb": "Pacific Pines", "postcode": "4211", "state": "QLD", "phone": "(07) 5644 1380", "distance": 8.201, "fax": "", "locationFeatures": null, "openingHours": {"mondayOpen": "09:00", "mondayClose": "21:00", "tuesdayOpen": "09:00", "tuesdayClose": "21:00", "wednesdayOpen": "09:00", "wednesdayClose": "21:00", "thursdayOpen": "09:00", "thursdayClose": "21:00", "fridayOpen": "09:00", "fridayClose": "21:00", "saturdayOpen": "09:00", "saturdayClose": "21:00", "sundayOpen": "09:00", "sundayClose": "19:00"}, "operationalInfo": {"storeManager": "CHRISTOPHER COE", "areaRegion": "QNS5", "areaRegionMgr": "Luke Pope (Secondment)", "regionZone": "QNS", "regionZoneMgr": "Adam Hill"}, "openingHoursExceptions": [], "isOpen": true, "openingDate": null, "closingDate": null, "cncEnabled": true, "cncStore": true}, {"locationID": 34256301, "brandID": 3, "storeID": 6461, "latitude": -27.99962, "longitude": 153.37724, "storeName": "Benowa Village", "address": "Corner Ross Street And Ashmore Road", "suburb": "Ashmore", "postcode": "4217", "state": "QLD", "phone": "(07) 5510 7580", "distance": 9.749, "fax": "", "locationFeatures": null, "openingHours": {"mondayOpen": "09:00", "mondayClose": "20:00", "tuesdayOpen": "09:00", "tuesdayClose": "20:00", "wednesdayOpen": "09:00", "wednesdayClose": "20:00", "thursdayOpen": "09:00", "thursdayClose": "21:00", "fridayOpen": "09:00", "fridayClose": "21:00", "saturdayOpen": "09:00", "saturdayClose": "21:00", "sundayOpen": "09:00", "sundayClose": "19:00"}, "operationalInfo": {"storeManager": "BRADLEY OWEN", "areaRegion": "QNS5", "areaRegionMgr": "Luke Pope (Secondment)", "regionZone": "QNS", "regionZoneMgr": "Adam Hill"}, "openingHoursExceptions": [], "isOpen": true, "openingDate": null, "closingDate": null, "cncEnabled": true, "cncStore": true}, {"locationID": 34256252, "brandID": 3, "storeID": 8688, "latitude": -27.999577, "longitude": 153.427829, "storeName": "Surfers Paradise Express", "address": "3240 Gold Coast Highway", "suburb": "Surfers Paradise", "postcode": "4217", "state": "QLD", "phone": "(07) 3734 0837", "distance": 9.796, "fax": "", "locationFeatures": null, "openingHours": {"mondayOpen": "10:00", "mondayClose": "22:00", "tuesdayOpen": "10:00", "tuesdayClose": "22:00", "wednesdayOpen": "10:00", "wednesdayClose": "22:00", "thursdayOpen": "10:00", "thursdayClose": "22:00", "fridayOpen": "10:00", "fridayClose": "22:00", "saturdayOpen": "10:00", "saturdayClose": "22:00", "sundayOpen": "10:00", "sundayClose": "21:00"}, "operationalInfo": {"storeManager": "", "areaRegion": "QNS5", "areaRegionMgr": "Luke Pope (Secondment)", "regionZone": "QNS", "regionZoneMgr": "Adam Hill"}, "openingHoursExceptions": [], "isOpen": true, "openingDate": null, "closingDate": null, "cncEnabled": true, "cncStore": true}, {"locationID": 34256076, "brandID": 3, "storeID": 6008, "latitude": -27.8536, "longitude": 153.315, "storeName": "Coomera Town Centre", "address": "73 Foxwell Road", "suburb": "Coomera", "postcode": "4209", "state": "QLD", "phone": "(07) 5605 8780", "distance": 9.949, "fax": "", "locationFeatures": null, "openingHours": {"mondayOpen": "09:00", "mondayClose": "19:00", "tuesdayOpen": "09:00", "tuesdayClose": "19:00", "wednesdayOpen": "09:00", "wednesdayClose": "20:00", "thursdayOpen": "09:00", "thursdayClose": "21:00", "fridayOpen": "09:00", "fridayClose": "21:00", "saturdayOpen": "09:00", "saturdayClose": "21:00", "sundayOpen": "10:00", "sundayClose": "18:00"}, "operationalInfo": {"storeManager": "ALEXANDRE BRENNAN", "areaRegion": "QNS5", "areaRegionMgr": "Luke Pope (Secondment)", "regionZone": "QNS", "regionZoneMgr": "Adam Hill"}, "openingHoursExceptions": [], "isOpen": true, "openingDate": null, "closingDate": null, "cncEnabled": true, "cncStore": true}, {"locationID": 34255951, "brandID": 3, "storeID": 8373, "latitude": -27.913858, "longitude": 153.282881, "storeName": "Coomera Lodge Bottleshop", "address": "160 Maudsland Road", "suburb": "Upper Coomera", "postcode": "4209", "state": "QLD", "phone": "(07) 3726 9625", "distance": 10.09, "fax": "", "locationFeatures": null, "openingHours": {"mondayOpen": "10:00", "mondayClose": "19:00", "tuesdayOpen": "10:00", "tuesdayClose": "19:00", "wednesdayOpen": "10:00", "wednesdayClose": "20:00", "thursdayOpen": "10:00", "thursdayClose": "20:00", "fridayOpen": "10:00", "fridayClose": "21:00", "saturdayOpen": "10:00", "saturdayClose": "20:00", "sundayOpen": "10:00", "sundayClose": "19:00"}, "operationalInfo": {"storeManager": "AMEIKA WATSON", "areaRegion": "QNS5", "areaRegionMgr": "Luke Pope (Secondment)", "regionZone": "QNS", "regionZoneMgr": "Adam Hill"}, "openingHoursExceptions": [], "isOpen": true, "openingDate": null, "closingDate": null, "cncEnabled": true, "cncStore": true}, {"locationID": 34256420, "brandID": 3, "storeID": 6599, "latitude": -27.998022, "longitude": 153.338097, "storeName": "Nerang", "address": "57 Station Street", "suburb": "Nerang", "postcode": "4211", "state": "QLD", "phone": "(07) 3734 0802", "distance": 10.792, "fax": "", "locationFeatures": null, "openingHours": {"mondayOpen": "09:00", "mondayClose": "20:00", "tuesdayOpen": "09:00", "tuesdayClose": "20:00", "wednesdayOpen": "09:00", "wednesdayClose": "20:00", "thursdayOpen": "09:00", "thursdayClose": "20:00", "fridayOpen": "09:00", "fridayClose": "21:00", "saturdayOpen": "09:00", "saturdayClose": "19:00", "sundayOpen": "09:00", "sundayClose": "18:00"}, "operationalInfo": {"storeManager": "VICTORIA CAMERON", "areaRegion": "QNS5", "areaRegionMgr": "Luke Pope (Secondment)", "regionZone": "QNS", "regionZoneMgr": "Adam Hill"}, "openingHoursExceptions": [], "isOpen": true, "openingDate": null, "closingDate": null, "cncEnabled": true, "cncStore": true}, {"locationID": 34256297, "brandID": 3, "storeID": 6310, "latitude": -27.851378, "longitude": 153.300593, "storeName": "Coomera City Centre", "address": "Old Coach Road And City Centre Drive", "suburb": "Upper Coomera", "postcode": "4209", "state": "QLD", "phone": "(07) 5680 9480", "distance": 11.043, "fax": "", "locationFeatures": null, "openingHours": {"mondayOpen": "09:00", "mondayClose": "20:00", "tuesdayOpen": "09:00", "tuesdayClose": "20:00", "wednesdayOpen": "09:00", "wednesdayClose": "20:00", "thursdayOpen": "09:00", "thursdayClose": "21:00", "fridayOpen": "09:00", "fridayClose": "21:00", "saturdayOpen": "09:00", "saturdayClose": "21:00", "sundayOpen": "09:00", "sundayClose": "18:00"}, "operationalInfo": {"storeManager": "DANIEL WESTROP", "areaRegion": "QNS5", "areaRegionMgr": "Luke Pope (Secondment)", "regionZone": "QNS", "regionZoneMgr": "Adam Hill"}, "openingHoursExceptions": [], "isOpen": true, "openingDate": null, "closingDate": null, "cncEnabled": true, "cncStore": true}, {"locationID": 34256304, "brandID": 3, "storeID": 6469, "latitude": -28.036258, "longitude": 153.427416, "storeName": "Pacific Fair", "address": "Hooker Boulevard", "suburb": "Broadbeach", "postcode": "4218", "state": "QLD", "phone": "(07) 5504 3480", "distance": 13.79, "fax": "", "locationFeatures": null, "openingHours": {"mondayOpen": "09:00", "mondayClose": "22:00", "tuesdayOpen": "09:00", "tuesdayClose": "22:00", "wednesdayOpen": "09:00", "wednesdayClose": "22:00", "thursdayOpen": "09:00", "thursdayClose": "22:00", "fridayOpen": "09:00", "fridayClose": "22:00", "saturdayOpen": "09:00", "saturdayClose": "22:00", "sundayOpen": "09:00", "sundayClose": "20:00"}, "operationalInfo": {"storeManager": "JOANNE ELVERS", "areaRegion": "QNS5", "areaRegionMgr": "Luke Pope (Secondment)", "regionZone": "QNS", "regionZoneMgr": "Adam Hill"}, "openingHoursExceptions": [], "isOpen": true, "openingDate": null, "closingDate": null, "cncEnabled": true, "cncStore": true}, {"locationID": 34256166, "brandID": 3, "storeID": 6103, "latitude": -28.039866, "longitude": 153.43378, "storeName": "Mermaid Beach Cellar", "address": "2547 Gold Coast Highway", "suburb": "Mermaid Beach", "postcode": "4218", "state": "QLD", "phone": "(07) 3734 0839", "distance": 14.282, "fax": "", "locationFeatures": null, "openingHours": {"mondayOpen": "10:00", "mondayClose": "20:00", "tuesdayOpen": "10:00", "tuesdayClose": "20:00", "wednesdayOpen": "10:00", "wednesdayClose": "20:00", "thursdayOpen": "10:00", "thursdayClose": "21:00", "fridayOpen": "10:00", "fridayClose": "22:00", "saturdayOpen": "10:00", "saturdayClose": "22:00", "sundayOpen": "10:00", "sundayClose": "20:00"}, "operationalInfo": {"storeManager": "LISA HEARN", "areaRegion": "QNS5", "areaRegionMgr": "Luke Pope (Secondment)", "regionZone": "QNS", "regionZoneMgr": "Adam Hill"}, "openingHoursExceptions": [], "isOpen": true, "openingDate": null, "closingDate": null, "cncEnabled": true, "cncStore": true}, {"locationID": 34256243, "brandID": 3, "storeID": 6242, "latitude": -28.045893, "longitude": 153.408209, "storeName": "Mermaid Waters", "address": "Corner Bermuda Street And Markeri Street", "suburb": "Mermaid Waters", "postcode": "4218", "state": "QLD", "phone": "(07) 3726 9680", "distance": 14.691, "fax": "", "locationFeatures": null, "openingHours": {"mondayOpen": "09:00", "mondayClose": "20:00", "tuesdayOpen": "09:00", "tuesdayClose": "20:00", "wednesdayOpen": "09:00", "wednesdayClose": "20:00", "thursdayOpen": "09:00", "thursdayClose": "21:00", "fridayOpen": "09:00", "fridayClose": "21:00", "saturdayOpen": "09:00", "saturdayClose": "20:00", "sundayOpen": "09:00", "sundayClose": "19:00"}, "operationalInfo": {"storeManager": "JAKE O'NEILL", "areaRegion": "QNS5", "areaRegionMgr": "Luke Pope (Secondment)", "regionZone": "QNS", "regionZoneMgr": "Adam Hill"}, "openingHoursExceptions": [], "isOpen": true, "openingDate": null, "closingDate": null, "cncEnabled": true, "cncStore": true}, {"locationID": 34256334, "brandID": 3, "storeID": 6653, "latitude": -28.074096, "longitude": 153.444112, "storeName": "Miami", "address": "Corner Gold Coast Avenue And Nundah Avenue", "suburb": "Miami", "postcode": "4220", "state": "QLD", "phone": "(07) 3734 0860", "distance": 18.188, "fax": "", "locationFeatures": null, "openingHours": {"mondayOpen": "09:00", "mondayClose": "21:00", "tuesdayOpen": "09:00", "tuesdayClose": "21:00", "wednesdayOpen": "09:00", "wednesdayClose": "21:00", "thursdayOpen": "09:00", "thursdayClose": "21:00", "fridayOpen": "09:00", "fridayClose": "22:00", "saturdayOpen": "09:00", "saturdayClose": "21:00", "sundayOpen": "09:00", "sundayClose": "19:00"}, "operationalInfo": {"storeManager": "TAYLOR ROGERS", "areaRegion": "QNS4", "areaRegionMgr": "Graham Parsonson", "regionZone": "QNS", "regionZoneMgr": "Adam Hill"}, "openingHoursExceptions": [], "isOpen": true, "openingDate": null, "closingDate": null, "cncEnabled": true, "cncStore": true}, {"locationID": 34256305, "brandID": 3, "storeID": 6471, "latitude": -28.077092, "longitude": 153.385427, "storeName": "Robina", "address": "19 Robina Town Centre Drive", "suburb": "Robina", "postcode": "4226", "state": "QLD", "phone": "(07) 5501 6180", "distance": 18.198, "fax": "", "locationFeatures": null, "openingHours": {"mondayOpen": "09:00", "mondayClose": "21:00", "tuesdayOpen": "09:00", "tuesdayClose": "21:00", "wednesdayOpen": "09:00", "wednesdayClose": "21:00", "thursdayOpen": "09:00", "thursdayClose": "21:00", "fridayOpen": "09:00", "fridayClose": "21:00", "saturdayOpen": "09:00", "saturdayClose": "21:00", "sundayOpen": "09:00", "sundayClose": "18:00"}, "operationalInfo": {"storeManager": "ROBERT LESCHKE", "areaRegion": "QNS4", "areaRegionMgr": "Graham Parsonson", "regionZone": "QNS", "regionZoneMgr": "Adam Hill"}, "openingHoursExceptions": [], "isOpen": true, "openingDate": null, "closingDate": null, "cncEnabled": true, "cncStore": true}, {"locationID": 34256298, "brandID": 3, "storeID": 6323, "latitude": -27.784265, "longitude": 153.262239, "storeName": "Ormeau Village", "address": "40 Eggersdorf Road", "suburb": "Ormeau", "postcode": "4208", "state": "QLD", "phone": "(07) 5645 1280", "distance": 18.661, "fax": "", "locationFeatures": null, "openingHours": {"mondayOpen": "09:00", "mondayClose": "20:00", "tuesdayOpen": "09:00", "tuesdayClose": "20:00", "wednesdayOpen": "09:00", "wednesdayClose": "20:00", "thursdayOpen": "09:00", "thursdayClose": "21:00", "fridayOpen": "09:00", "fridayClose": "21:00", "saturdayOpen": "09:00", "saturdayClose": "20:00", "sundayOpen": "09:00", "sundayClose": "18:00"}, "operationalInfo": {"storeManager": "HITESH NAYYAR", "areaRegion": "QNS6", "areaRegionMgr": "Ian Haines", "regionZone": "QNS", "regionZoneMgr": "Adam Hill"}, "openingHoursExceptions": [], "isOpen": true, "openingDate": null, "closingDate": null, "cncEnabled": true, "cncStore": true}]