[{"locationID": 34256325, "brandID": 3, "storeID": 6638, "latitude": -27.60752, "longitude": 153.110493, "storeName": "Kuraby", "address": "21 Kingston Road", "suburb": "Underwood", "postcode": "4119", "state": "QLD", "phone": "(07) 3726 9614", "distance": 0.143, "fax": "", "locationFeatures": null, "openingHours": {"mondayOpen": "10:00", "mondayClose": "19:00", "tuesdayOpen": "10:00", "tuesdayClose": "19:00", "wednesdayOpen": "10:00", "wednesdayClose": "19:00", "thursdayOpen": "10:00", "thursdayClose": "20:00", "fridayOpen": "10:00", "fridayClose": "20:00", "saturdayOpen": "10:00", "saturdayClose": "20:00", "sundayOpen": "10:00", "sundayClose": "19:00"}, "operationalInfo": {"storeManager": "SARAH MADDEN", "areaRegion": "QNS7", "areaRegionMgr": "Ben Harris", "regionZone": "QNS", "regionZoneMgr": "Adam Hill"}, "openingHoursExceptions": [], "isOpen": true, "openingDate": null, "closingDate": null, "cncEnabled": true, "cncStore": true}, {"locationID": 34256330, "brandID": 3, "storeID": 6648, "latitude": -27.611762, "longitude": 153.124447, "storeName": "Springwood", "address": "17-25 Cinderalla Road", "suburb": "Springwood", "postcode": "4127", "state": "QLD", "phone": "(07) 3726 9681", "distance": 1.257, "fax": "", "locationFeatures": null, "openingHours": {"mondayOpen": "09:00", "mondayClose": "20:00", "tuesdayOpen": "09:00", "tuesdayClose": "20:00", "wednesdayOpen": "09:00", "wednesdayClose": "20:00", "thursdayOpen": "09:00", "thursdayClose": "20:00", "fridayOpen": "09:00", "fridayClose": "20:00", "saturdayOpen": "09:00", "saturdayClose": "20:00", "sundayOpen": "09:00", "sundayClose": "18:00"}, "operationalInfo": {"storeManager": "SHARON OLSON", "areaRegion": "QNS7", "areaRegionMgr": "Ben Harris", "regionZone": "QNS", "regionZoneMgr": "Adam Hill"}, "openingHoursExceptions": [], "isOpen": true, "openingDate": null, "closingDate": null, "cncEnabled": true, "cncStore": true}, {"locationID": 34256171, "brandID": 3, "storeID": 6123, "latitude": -27.596542, "longitude": 153.124738, "storeName": "Rochedale Cellars", "address": "549-563 Underwood Road", "suburb": "Rochedale", "postcode": "4123", "state": "QLD", "phone": "(07) 3726 9603", "distance": 1.84, "fax": "", "locationFeatures": null, "openingHours": {"mondayOpen": "09:00", "mondayClose": "20:00", "tuesdayOpen": "09:00", "tuesdayClose": "20:00", "wednesdayOpen": "09:00", "wednesdayClose": "20:00", "thursdayOpen": "09:00", "thursdayClose": "21:00", "fridayOpen": "09:00", "fridayClose": "21:00", "saturdayOpen": "09:00", "saturdayClose": "21:00", "sundayOpen": "09:00", "sundayClose": "19:00"}, "operationalInfo": {"storeManager": "ROBERT ALI", "areaRegion": "QNS7", "areaRegionMgr": "Ben Harris", "regionZone": "QNS", "regionZoneMgr": "Adam Hill"}, "openingHoursExceptions": [], "isOpen": true, "openingDate": null, "closingDate": null, "cncEnabled": true, "cncStore": true}, {"locationID": 34256158, "brandID": 3, "storeID": 6091, "latitude": -27.57746, "longitude": 153.113921, "storeName": "Rochedale", "address": "329 Gardner Road", "suburb": "Rochedale", "postcode": "4123", "state": "QLD", "phone": "(07) 3182 9480", "distance": 3.498, "fax": "", "locationFeatures": null, "openingHours": {"mondayOpen": "09:00", "mondayClose": "20:00", "tuesdayOpen": "09:00", "tuesdayClose": "20:00", "wednesdayOpen": "09:00", "wednesdayClose": "20:00", "thursdayOpen": "09:00", "thursdayClose": "21:00", "fridayOpen": "09:00", "fridayClose": "21:00", "saturdayOpen": "09:00", "saturdayClose": "21:00", "sundayOpen": "09:00", "sundayClose": "18:00"}, "operationalInfo": {"storeManager": "SAMANTHA DILLON", "areaRegion": "QNS7", "areaRegionMgr": "Ben Harris", "regionZone": "QNS", "regionZoneMgr": "Adam Hill"}, "openingHoursExceptions": [], "isOpen": true, "openingDate": null, "closingDate": null, "cncEnabled": true, "cncStore": true}, {"locationID": 34256239, "brandID": 3, "storeID": 6209, "latitude": -27.642843, "longitude": 153.117515, "storeName": "Logan City Centre", "address": "Corner Kingston Road And Wembley Road", "suburb": "Woodridge", "postcode": "4114", "state": "QLD", "phone": "(07) 3734 0848", "distance": 3.837, "fax": "", "locationFeatures": null, "openingHours": {"mondayOpen": "09:00", "mondayClose": "20:00", "tuesdayOpen": "09:00", "tuesdayClose": "20:00", "wednesdayOpen": "09:00", "wednesdayClose": "20:00", "thursdayOpen": "09:00", "thursdayClose": "20:00", "fridayOpen": "09:00", "fridayClose": "21:00", "saturdayOpen": "09:00", "saturdayClose": "21:00", "sundayOpen": "09:00", "sundayClose": "18:00"}, "operationalInfo": {"storeManager": "TERRY WARE", "areaRegion": "QNS6", "areaRegionMgr": "Ian Haines", "regionZone": "QNS", "regionZoneMgr": "Adam Hill"}, "openingHoursExceptions": [], "isOpen": true, "openingDate": null, "closingDate": null, "cncEnabled": true, "cncStore": true}, {"locationID": 34256319, "brandID": 3, "storeID": 6622, "latitude": -27.611154, "longitude": 153.055622, "storeName": "Sunnybank Hills", "address": "Corner Calam Road And Compton Road", "suburb": "Sunnybank Hills", "postcode": "4109", "state": "QLD", "phone": "(07) 3712 5680", "distance": 4.665, "fax": "", "locationFeatures": null, "openingHours": {"mondayOpen": "09:00", "mondayClose": "20:00", "tuesdayOpen": "09:00", "tuesdayClose": "20:00", "wednesdayOpen": "09:00", "wednesdayClose": "20:00", "thursdayOpen": "09:00", "thursdayClose": "21:00", "fridayOpen": "09:00", "fridayClose": "21:00", "saturdayOpen": "09:00", "saturdayClose": "20:00", "sundayOpen": "09:00", "sundayClose": "18:00"}, "operationalInfo": {"storeManager": "MELODY VOLLER", "areaRegion": "QNS7", "areaRegionMgr": "Ben Harris", "regionZone": "QNS", "regionZoneMgr": "Adam Hill"}, "openingHoursExceptions": [], "isOpen": true, "openingDate": null, "closingDate": null, "cncEnabled": true, "cncStore": true}, {"locationID": 34256184, "brandID": 3, "storeID": 8644, "latitude": -27.644038, "longitude": 153.153677, "storeName": "Daisy Hill Liquor King", "address": "4-14 Alamanda Drive", "suburb": "Daisy Hill", "postcode": "4127", "state": "QLD", "phone": "(07) 3726 9692", "distance": 5.394, "fax": "", "locationFeatures": null, "openingHours": {"mondayOpen": "10:00", "mondayClose": "19:00", "tuesdayOpen": "10:00", "tuesdayClose": "19:00", "wednesdayOpen": "10:00", "wednesdayClose": "19:00", "thursdayOpen": "10:00", "thursdayClose": "19:00", "fridayOpen": "10:00", "fridayClose": "20:00", "saturdayOpen": "10:00", "saturdayClose": "20:00", "sundayOpen": "10:00", "sundayClose": "16:00"}, "operationalInfo": {"storeManager": "BIANCAH STRONG", "areaRegion": "QNS6", "areaRegionMgr": "Ian Haines", "regionZone": "QNS", "regionZoneMgr": "Adam Hill"}, "openingHoursExceptions": [], "isOpen": true, "openingDate": null, "closingDate": null, "cncEnabled": true, "cncStore": true}, {"locationID": 34256410, "brandID": 3, "storeID": 6540, "latitude": -27.562689, "longitude": 153.082112, "storeName": "Garden City", "address": "2049 Logan Road", "suburb": "Upper Mount Gravatt", "postcode": "4122", "state": "QLD", "phone": "(07) 3734 0854", "distance": 5.66, "fax": "", "locationFeatures": null, "openingHours": {"mondayOpen": "09:00", "mondayClose": "20:00", "tuesdayOpen": "09:00", "tuesdayClose": "20:00", "wednesdayOpen": "09:00", "wednesdayClose": "20:00", "thursdayOpen": "09:00", "thursdayClose": "21:00", "fridayOpen": "09:00", "fridayClose": "20:00", "saturdayOpen": "09:00", "saturdayClose": "20:00", "sundayOpen": "09:00", "sundayClose": "18:00"}, "operationalInfo": {"storeManager": "JOHN HENWOOD", "areaRegion": "QNS7", "areaRegionMgr": "Ben Harris", "regionZone": "QNS", "regionZoneMgr": "Adam Hill"}, "openingHoursExceptions": [], "isOpen": true, "openingDate": null, "closingDate": null, "cncEnabled": true, "cncStore": true}, {"locationID": 34256422, "brandID": 3, "storeID": 6609, "latitude": -27.571469, "longitude": 153.063142, "storeName": "Sunnybank", "address": "358 Mains And Mccullough Streets", "suburb": "Sunnybank", "postcode": "4109", "state": "QLD", "phone": "(07) 3726 9684", "distance": 5.776, "fax": "", "locationFeatures": null, "openingHours": {"mondayOpen": "09:00", "mondayClose": "20:00", "tuesdayOpen": "09:00", "tuesdayClose": "20:00", "wednesdayOpen": "09:00", "wednesdayClose": "20:00", "thursdayOpen": "09:00", "thursdayClose": "21:00", "fridayOpen": "09:00", "fridayClose": "21:00", "saturdayOpen": "09:00", "saturdayClose": "20:00", "sundayOpen": "09:00", "sundayClose": "18:00"}, "operationalInfo": {"storeManager": "DANIEL BROWNE", "areaRegion": "QNS7", "areaRegionMgr": "Ben Harris", "regionZone": "QNS", "regionZoneMgr": "Adam Hill"}, "openingHoursExceptions": [], "isOpen": true, "openingDate": null, "closingDate": null, "cncEnabled": true, "cncStore": true}, {"locationID": 34256418, "brandID": 3, "storeID": 6597, "latitude": -27.6616, "longitude": 153.171, "storeName": "Hyperdome Liquor King", "address": "14-38 Bryants Road", "suburb": "Loganholme", "postcode": "4129", "state": "QLD", "phone": "(07) 3734 0809", "distance": 7.833, "fax": "", "locationFeatures": null, "openingHours": {"mondayOpen": "09:00", "mondayClose": "20:00", "tuesdayOpen": "09:00", "tuesdayClose": "20:00", "wednesdayOpen": "09:00", "wednesdayClose": "20:00", "thursdayOpen": "09:00", "thursdayClose": "21:00", "fridayOpen": "09:00", "fridayClose": "21:00", "saturdayOpen": "09:00", "saturdayClose": "21:00", "sundayOpen": "09:00", "sundayClose": "18:00"}, "operationalInfo": {"storeManager": "PAREURUORA TAPSELL", "areaRegion": "QNS6", "areaRegionMgr": "Ian Haines", "regionZone": "QNS", "regionZoneMgr": "Adam Hill"}, "openingHoursExceptions": [], "isOpen": true, "openingDate": null, "closingDate": null, "cncEnabled": true, "cncStore": true}, {"locationID": 34256179, "brandID": 3, "storeID": 8638, "latitude": -27.66163, "longitude": 153.17115, "storeName": "Fitzys Loganholme Drive", "address": "Corner Pacific Highway And Bryants Road", "suburb": "Loganholme", "postcode": "4129", "state": "QLD", "phone": "(07) 3726 9651", "distance": 7.844, "fax": "", "locationFeatures": null, "openingHours": {"mondayOpen": "10:00", "mondayClose": "21:00", "tuesdayOpen": "10:00", "tuesdayClose": "21:00", "wednesdayOpen": "10:00", "wednesdayClose": "21:00", "thursdayOpen": "10:00", "thursdayClose": "22:00", "fridayOpen": "10:00", "fridayClose": "22:00", "saturdayOpen": "10:00", "saturdayClose": "22:00", "sundayOpen": "10:00", "sundayClose": "20:00"}, "operationalInfo": {"storeManager": "JADE KEENE", "areaRegion": "QNS6", "areaRegionMgr": "Ian Haines", "regionZone": "QNS", "regionZoneMgr": "Adam Hill"}, "openingHoursExceptions": [], "isOpen": true, "openingDate": null, "closingDate": null, "cncEnabled": true, "cncStore": true}, {"locationID": 34256316, "brandID": 3, "storeID": 6616, "latitude": -27.679369, "longitude": 153.115719, "storeName": "Marsden", "address": "55-77  Chambers Flat Road", "suburb": "Marsden", "postcode": "4132", "state": "QLD", "phone": "(07) 3726 9693", "distance": 7.863, "fax": "", "locationFeatures": null, "openingHours": {"mondayOpen": "09:00", "mondayClose": "20:00", "tuesdayOpen": "09:00", "tuesdayClose": "20:00", "wednesdayOpen": "09:00", "wednesdayClose": "21:00", "thursdayOpen": "09:00", "thursdayClose": "21:00", "fridayOpen": "09:00", "fridayClose": "21:00", "saturdayOpen": "09:00", "saturdayClose": "21:00", "sundayOpen": "09:00", "sundayClose": "18:00"}, "operationalInfo": {"storeManager": "MICHELLE BADGERY", "areaRegion": "QNS6", "areaRegionMgr": "Ian Haines", "regionZone": "QNS", "regionZoneMgr": "Adam Hill"}, "openingHoursExceptions": [], "isOpen": true, "openingDate": null, "closingDate": null, "cncEnabled": true, "cncStore": true}, {"locationID": 34256312, "brandID": 3, "storeID": 6486, "latitude": -27.540449, "longitude": 153.082799, "storeName": "Mt Gravatt Plaza", "address": "55 Creek Road", "suburb": "Mount Gravatt", "postcode": "4122", "state": "QLD", "phone": "(07) 3452 6480", "distance": 7.952, "fax": "", "locationFeatures": null, "openingHours": {"mondayOpen": "09:00", "mondayClose": "20:00", "tuesdayOpen": "09:00", "tuesdayClose": "20:00", "wednesdayOpen": "09:00", "wednesdayClose": "20:00", "thursdayOpen": "09:00", "thursdayClose": "20:00", "fridayOpen": "09:00", "fridayClose": "20:00", "saturdayOpen": "09:00", "saturdayClose": "20:00", "sundayOpen": "09:00", "sundayClose": "18:00"}, "operationalInfo": {"storeManager": "HAYDEN DONOHUE", "areaRegion": "QNS7", "areaRegionMgr": "Ben Harris", "regionZone": "QNS", "regionZoneMgr": "Adam Hill"}, "openingHoursExceptions": [], "isOpen": true, "openingDate": null, "closingDate": null, "cncEnabled": true, "cncStore": true}, {"locationID": 34256181, "brandID": 3, "storeID": 8641, "latitude": -27.663414, "longitude": 153.175631, "storeName": "Loganholme Shopping Village", "address": "37-59 Bryants Road", "suburb": "Loganholme", "postcode": "4129", "state": "QLD", "phone": "(07) 3734 0874", "distance": 8.247, "fax": "", "locationFeatures": null, "openingHours": {"mondayOpen": "10:00", "mondayClose": "20:00", "tuesdayOpen": "10:00", "tuesdayClose": "20:00", "wednesdayOpen": "10:00", "wednesdayClose": "20:00", "thursdayOpen": "10:00", "thursdayClose": "21:00", "fridayOpen": "10:00", "fridayClose": "21:00", "saturdayOpen": "10:00", "saturdayClose": "21:00", "sundayOpen": "10:00", "sundayClose": "20:00"}, "operationalInfo": {"storeManager": "ROBERT OSWALD", "areaRegion": "QNS6", "areaRegionMgr": "Ian Haines", "regionZone": "QNS", "regionZoneMgr": "Adam Hill"}, "openingHoursExceptions": [], "isOpen": true, "openingDate": null, "closingDate": null, "cncEnabled": true, "cncStore": true}, {"locationID": 34256168, "brandID": 3, "storeID": 6113, "latitude": -27.692578, "longitude": 153.135438, "storeName": "Waterford Plaza Cellars", "address": "Corner Kingston-Beenleigh Road And Tygum Road", "suburb": "Waterford", "postcode": "4133", "state": "QLD", "phone": "(07) 3734 0840", "distance": 9.562, "fax": "", "locationFeatures": null, "openingHours": {"mondayOpen": "09:00", "mondayClose": "19:00", "tuesdayOpen": "09:00", "tuesdayClose": "19:00", "wednesdayOpen": "09:00", "wednesdayClose": "19:00", "thursdayOpen": "09:00", "thursdayClose": "20:00", "fridayOpen": "09:00", "fridayClose": "20:00", "saturdayOpen": "09:00", "saturdayClose": "20:00", "sundayOpen": "09:00", "sundayClose": "18:00"}, "operationalInfo": {"storeManager": "CALEB KJAERGAARD", "areaRegion": "QNS6", "areaRegionMgr": "Ian Haines", "regionZone": "QNS", "regionZoneMgr": "Adam Hill"}, "openingHoursExceptions": [], "isOpen": true, "openingDate": null, "closingDate": null, "cncEnabled": true, "cncStore": true}, {"locationID": 34256182, "brandID": 3, "storeID": 8642, "latitude": -27.693008, "longitude": 153.143167, "storeName": "Fitzys Waterford", "address": "24-34 Albert Street", "suburb": "Waterford", "postcode": "4133", "state": "QLD", "phone": "(07) 3726 9672", "distance": 9.778, "fax": "", "locationFeatures": null, "openingHours": {"mondayOpen": "10:00", "mondayClose": "20:00", "tuesdayOpen": "10:00", "tuesdayClose": "20:00", "wednesdayOpen": "10:00", "wednesdayClose": "20:00", "thursdayOpen": "10:00", "thursdayClose": "21:00", "fridayOpen": "10:00", "fridayClose": "22:00", "saturdayOpen": "10:00", "saturdayClose": "22:00", "sundayOpen": "10:00", "sundayClose": "19:00"}, "operationalInfo": {"storeManager": "PETER FULLER", "areaRegion": "QNS6", "areaRegionMgr": "Ian Haines", "regionZone": "QNS", "regionZoneMgr": "Adam Hill"}, "openingHoursExceptions": [], "isOpen": true, "openingDate": null, "closingDate": null, "cncEnabled": true, "cncStore": true}, {"locationID": 34256180, "brandID": 3, "storeID": 8640, "latitude": -27.690339, "longitude": 153.177928, "storeName": "Clarks Rd Liquor King", "address": "2-8 Ascot Drive", "suburb": "Loganholme", "postcode": "4129", "state": "QLD", "phone": "(07) 3734 0873", "distance": 10.751, "fax": "", "locationFeatures": null, "openingHours": {"mondayOpen": "10:00", "mondayClose": "20:00", "tuesdayOpen": "10:00", "tuesdayClose": "20:00", "wednesdayOpen": "10:00", "wednesdayClose": "20:00", "thursdayOpen": "10:00", "thursdayClose": "20:00", "fridayOpen": "10:00", "fridayClose": "21:00", "saturdayOpen": "10:00", "saturdayClose": "20:00", "sundayOpen": "10:00", "sundayClose": "19:00"}, "operationalInfo": {"storeManager": "MICHAEL HALL", "areaRegion": "QNS6", "areaRegionMgr": "Ian Haines", "regionZone": "QNS", "regionZoneMgr": "Adam Hill"}, "openingHoursExceptions": [], "isOpen": true, "openingDate": null, "closingDate": null, "cncEnabled": true, "cncStore": true}, {"locationID": 34256183, "brandID": 3, "storeID": 8643, "latitude": -27.700065, "longitude": 153.168514, "storeName": "Edens Landing Liquor King", "address": "127 Castille Crescent", "suburb": "Edens Landing", "postcode": "4207", "state": "QLD", "phone": "(07) 3734 0875", "distance": 11.302, "fax": "", "locationFeatures": null, "openingHours": {"mondayOpen": "11:00", "mondayClose": "19:00", "tuesdayOpen": "11:00", "tuesdayClose": "19:00", "wednesdayOpen": "11:00", "wednesdayClose": "19:00", "thursdayOpen": "11:00", "thursdayClose": "19:00", "fridayOpen": "11:00", "fridayClose": "20:00", "saturdayOpen": "11:00", "saturdayClose": "20:00", "sundayOpen": "11:00", "sundayClose": "19:00"}, "operationalInfo": {"storeManager": "MATTHEW KNIGHT", "areaRegion": "QNS6", "areaRegionMgr": "Ian Haines", "regionZone": "QNS", "regionZoneMgr": "Adam Hill"}, "openingHoursExceptions": [], "isOpen": true, "openingDate": null, "closingDate": null, "cncEnabled": true, "cncStore": true}, {"locationID": 34256300, "brandID": 3, "storeID": 6460, "latitude": -27.696581, "longitude": 153.039344, "storeName": "Park Ridge", "address": "Park Ridge Road", "suburb": "Park Ridge", "postcode": "4125", "state": "QLD", "phone": "(07) 3380 4880", "distance": 11.484, "fax": "", "locationFeatures": null, "openingHours": {"mondayOpen": "09:00", "mondayClose": "20:00", "tuesdayOpen": "09:00", "tuesdayClose": "20:00", "wednesdayOpen": "09:00", "wednesdayClose": "20:00", "thursdayOpen": "09:00", "thursdayClose": "21:00", "fridayOpen": "09:00", "fridayClose": "21:00", "saturdayOpen": "09:00", "saturdayClose": "20:00", "sundayOpen": "09:00", "sundayClose": "18:00"}, "operationalInfo": {"storeManager": "PAUL DWYER", "areaRegion": "QNS6", "areaRegionMgr": "Ian Haines", "regionZone": "QNS", "regionZoneMgr": "Adam Hill"}, "openingHoursExceptions": [], "isOpen": true, "openingDate": null, "closingDate": null, "cncEnabled": true, "cncStore": true}, {"locationID": 34255950, "brandID": 3, "storeID": 8370, "latitude": -27.534649, "longitude": 153.206071, "storeName": "Currumbin Court Bottleshop", "address": "3 Currumbin Court", "suburb": "Capalaba", "postcode": "4157", "state": "QLD", "phone": "(07) 3726 9691", "distance": 11.61, "fax": "", "locationFeatures": null, "openingHours": {"mondayOpen": "10:00", "mondayClose": "19:00", "tuesdayOpen": "10:00", "tuesdayClose": "19:00", "wednesdayOpen": "10:00", "wednesdayClose": "19:00", "thursdayOpen": "10:00", "thursdayClose": "20:00", "fridayOpen": "10:00", "fridayClose": "20:00", "saturdayOpen": "10:00", "saturdayClose": "20:00", "sundayOpen": "10:00", "sundayClose": "18:00"}, "operationalInfo": {"storeManager": "KYM PATTISON", "areaRegion": "QNS7", "areaRegionMgr": "Ben Harris", "regionZone": "QNS", "regionZoneMgr": "Adam Hill"}, "openingHoursExceptions": [], "isOpen": true, "openingDate": null, "closingDate": null, "cncEnabled": true, "cncStore": true}, {"locationID": 34256345, "brandID": 3, "storeID": 6684, "latitude": -27.501911, "longitude": 153.102592, "storeName": "Carindale Westfield", "address": "1151 Creek Road", "suburb": "Carindale", "postcode": "4152", "state": "QLD", "phone": "(07) 3308 6180", "distance": 11.904, "fax": "", "locationFeatures": null, "openingHours": {"mondayOpen": "09:00", "mondayClose": "21:00", "tuesdayOpen": "09:00", "tuesdayClose": "21:00", "wednesdayOpen": "09:00", "wednesdayClose": "21:00", "thursdayOpen": "09:00", "thursdayClose": "22:00", "fridayOpen": "09:00", "fridayClose": "21:00", "saturdayOpen": "09:00", "saturdayClose": "21:00", "sundayOpen": "09:00", "sundayClose": "18:00"}, "operationalInfo": {"storeManager": "TIMOTHY SCHULTZ", "areaRegion": "QLD1CB", "areaRegionMgr": "Matthue Woods", "regionZone": "QLD", "regionZoneMgr": "Mat Davey"}, "openingHoursExceptions": [], "isOpen": true, "openingDate": null, "closingDate": null, "cncEnabled": true, "cncStore": true}, {"locationID": 34256173, "brandID": 3, "storeID": 6127, "latitude": -27.501652, "longitude": 153.116217, "storeName": "Carindale", "address": "42 Scrub Road", "suburb": "Carindale", "postcode": "4152", "state": "QLD", "phone": "(07) 3734 0842", "distance": 11.925, "fax": "", "locationFeatures": null, "openingHours": {"mondayOpen": "10:00", "mondayClose": "20:00", "tuesdayOpen": "10:00", "tuesdayClose": "20:00", "wednesdayOpen": "10:00", "wednesdayClose": "20:00", "thursdayOpen": "10:00", "thursdayClose": "20:00", "fridayOpen": "10:00", "fridayClose": "21:00", "saturdayOpen": "10:00", "saturdayClose": "21:00", "sundayOpen": "10:00", "sundayClose": "19:00"}, "operationalInfo": {"storeManager": "ALBERT WESSLING", "areaRegion": "QNS7", "areaRegionMgr": "Ben Harris", "regionZone": "QNS", "regionZoneMgr": "Adam Hill"}, "openingHoursExceptions": [], "isOpen": true, "openingDate": null, "closingDate": null, "cncEnabled": true, "cncStore": true}, {"locationID": 34256015, "brandID": 3, "storeID": 8560, "latitude": -27.578058, "longitude": 152.973603, "storeName": "Inala Superstore", "address": "Corner Freeman Road And Rudd Street", "suburb": "Inala", "postcode": "4077", "state": "QLD", "phone": "(07) 3078 8600", "distance": 12.145, "fax": "", "locationFeatures": null, "openingHours": {"mondayOpen": "10:00", "mondayClose": "19:00", "tuesdayOpen": "10:00", "tuesdayClose": "19:00", "wednesdayOpen": "10:00", "wednesdayClose": "19:00", "thursdayOpen": "10:00", "thursdayClose": "20:00", "fridayOpen": "10:00", "fridayClose": "21:00", "saturdayOpen": "10:00", "saturdayClose": "21:00", "sundayOpen": "10:00", "sundayClose": "18:00"}, "operationalInfo": {"storeManager": "HARDEEP GILL", "areaRegion": "QLD8", "areaRegionMgr": "Konrad Kolmet (Secondment)", "regionZone": "QLD", "regionZoneMgr": "Mat Davey"}, "openingHoursExceptions": [], "isOpen": true, "openingDate": null, "closingDate": null, "cncEnabled": true, "cncStore": true}, {"locationID": 34256412, "brandID": 3, "storeID": 6542, "latitude": -27.624931, "longitude": 152.967925, "storeName": "Forest Lake", "address": "235 Forest Lake Boulevard", "suburb": "Forest Lake", "postcode": "4078", "state": "QLD", "phone": "(07) 3714 2580", "distance": 12.27, "fax": "", "locationFeatures": null, "openingHours": {"mondayOpen": "09:00", "mondayClose": "20:00", "tuesdayOpen": "09:00", "tuesdayClose": "20:00", "wednesdayOpen": "09:00", "wednesdayClose": "20:00", "thursdayOpen": "09:00", "thursdayClose": "21:00", "fridayOpen": "09:00", "fridayClose": "21:00", "saturdayOpen": "09:00", "saturdayClose": "20:00", "sundayOpen": "09:00", "sundayClose": "18:00"}, "operationalInfo": {"storeManager": "BRENDAN DIETRICH", "areaRegion": "QLD8", "areaRegionMgr": "Konrad Kolmet (Secondment)", "regionZone": "QLD", "regionZoneMgr": "Mat Davey"}, "openingHoursExceptions": [], "isOpen": true, "openingDate": null, "closingDate": null, "cncEnabled": true, "cncStore": true}, {"locationID": 34255940, "brandID": 3, "storeID": 8336, "latitude": -27.509428, "longitude": 153.024171, "storeName": "Fairfield (fairfield Road)", "address": "190 Fairfield Road", "suburb": "Fairfield", "postcode": "4103", "state": "QLD", "phone": "(07) 3734 0867", "distance": 13.266, "fax": "", "locationFeatures": null, "openingHours": {"mondayOpen": "10:00", "mondayClose": "20:00", "tuesdayOpen": "10:00", "tuesdayClose": "20:00", "wednesdayOpen": "10:00", "wednesdayClose": "20:00", "thursdayOpen": "10:00", "thursdayClose": "20:00", "fridayOpen": "10:00", "fridayClose": "21:00", "saturdayOpen": "10:00", "saturdayClose": "21:00", "sundayOpen": "10:00", "sundayClose": "19:00"}, "operationalInfo": {"storeManager": "JAMIE ARTUS", "areaRegion": "QLD1CB", "areaRegionMgr": "Matthue Woods", "regionZone": "QLD", "regionZoneMgr": "Mat Davey"}, "openingHoursExceptions": [], "isOpen": true, "openingDate": null, "closingDate": null, "cncEnabled": true, "cncStore": true}, {"locationID": 34256335, "brandID": 3, "storeID": 6663, "latitude": -27.532431, "longitude": 152.981618, "storeName": "Sherwood", "address": "672 Sherwood Road", "suburb": "Sherwood", "postcode": "4075", "state": "QLD", "phone": "(07) 3734 0861", "distance": 13.873, "fax": "", "locationFeatures": null, "openingHours": {"mondayOpen": "10:00", "mondayClose": "20:00", "tuesdayOpen": "10:00", "tuesdayClose": "20:00", "wednesdayOpen": "10:00", "wednesdayClose": "20:00", "thursdayOpen": "10:00", "thursdayClose": "20:00", "fridayOpen": "10:00", "fridayClose": "21:00", "saturdayOpen": "10:00", "saturdayClose": "21:00", "sundayOpen": "10:00", "sundayClose": "19:00"}, "operationalInfo": {"storeManager": "JAMES HISCOCK", "areaRegion": "QLD1CB", "areaRegionMgr": "Matthue Woods", "regionZone": "QLD", "regionZoneMgr": "Mat Davey"}, "openingHoursExceptions": [], "isOpen": true, "openingDate": null, "closingDate": null, "cncEnabled": true, "cncStore": true}, {"locationID": 34256072, "brandID": 3, "storeID": 6002, "latitude": -27.718445, "longitude": 153.202353, "storeName": "Beenleigh", "address": "19 Tansey Street", "suburb": "Beenleigh", "postcode": "4207", "state": "QLD", "phone": "(07) 3726 9698", "distance": 14.506, "fax": "", "locationFeatures": null, "openingHours": {"mondayOpen": "09:00", "mondayClose": "20:00", "tuesdayOpen": "09:00", "tuesdayClose": "20:00", "wednesdayOpen": "09:00", "wednesdayClose": "20:00", "thursdayOpen": "09:00", "thursdayClose": "20:00", "fridayOpen": "09:00", "fridayClose": "21:00", "saturdayOpen": "09:00", "saturdayClose": "20:00", "sundayOpen": "09:00", "sundayClose": "18:00"}, "operationalInfo": {"storeManager": "SAMANTHA BILLIAU", "areaRegion": "QNS6", "areaRegionMgr": "Ian Haines", "regionZone": "QNS", "regionZoneMgr": "Adam Hill"}, "openingHoursExceptions": [], "isOpen": true, "openingDate": null, "closingDate": null, "cncEnabled": true, "cncStore": true}, {"locationID": 34256089, "brandID": 3, "storeID": 6080, "latitude": -27.559021, "longitude": 152.950912, "storeName": "Darra", "address": "Shop 9a, 166 Monier Road", "suburb": "Darra", "postcode": "4076", "state": "QLD", "phone": "(07) 3726 9611", "distance": 14.673, "fax": "", "locationFeatures": null, "openingHours": {"mondayOpen": "09:00", "mondayClose": "21:00", "tuesdayOpen": "09:00", "tuesdayClose": "21:00", "wednesdayOpen": "09:00", "wednesdayClose": "21:00", "thursdayOpen": "09:00", "thursdayClose": "21:00", "fridayOpen": "09:00", "fridayClose": "21:00", "saturdayOpen": "09:00", "saturdayClose": "21:00", "sundayOpen": "09:00", "sundayClose": "18:00"}, "operationalInfo": {"storeManager": "JOHN NORRIS", "areaRegion": "QNS6", "areaRegionMgr": "Ian Haines", "regionZone": "QNS", "regionZoneMgr": "Adam Hill"}, "openingHoursExceptions": [], "isOpen": true, "openingDate": null, "closingDate": null, "cncEnabled": true, "cncStore": true}, {"locationID": 34255943, "brandID": 3, "storeID": 8341, "latitude": -27.586991, "longitude": 153.280756, "storeName": "Victoria Point", "address": "Corner Cleveland-Redland Bay Road And Bunker Road", "suburb": "Victoria Point", "postcode": "4165", "state": "QLD", "phone": "(07) 3734 0869", "distance": 14.745, "fax": "", "locationFeatures": null, "openingHours": {"mondayOpen": "09:00", "mondayClose": "18:00", "tuesdayOpen": "09:00", "tuesdayClose": "18:00", "wednesdayOpen": "09:00", "wednesdayClose": "18:00", "thursdayOpen": "09:00", "thursdayClose": "21:00", "fridayOpen": "09:00", "fridayClose": "19:00", "saturdayOpen": "09:00", "saturdayClose": "19:00", "sundayOpen": "09:00", "sundayClose": "18:00"}, "operationalInfo": {"storeManager": "TIMOTHY LITTLE", "areaRegion": "QNS7", "areaRegionMgr": "Ben Harris", "regionZone": "QNS", "regionZoneMgr": "Adam Hill"}, "openingHoursExceptions": [], "isOpen": true, "openingDate": null, "closingDate": null, "cncEnabled": true, "cncStore": true}, {"locationID": 34256423, "brandID": 3, "storeID": 6611, "latitude": -27.502243, "longitude": 153.005813, "storeName": "St Lucia", "address": "222 Hawken Drive", "suburb": "St Lucia", "postcode": "4067", "state": "QLD", "phone": "(07) 3734 0856", "distance": 14.823, "fax": "", "locationFeatures": null, "openingHours": {"mondayOpen": "10:00", "mondayClose": "20:00", "tuesdayOpen": "10:00", "tuesdayClose": "20:00", "wednesdayOpen": "10:00", "wednesdayClose": "20:00", "thursdayOpen": "10:00", "thursdayClose": "21:00", "fridayOpen": "10:00", "fridayClose": "21:00", "saturdayOpen": "10:00", "saturdayClose": "21:00", "sundayOpen": "10:00", "sundayClose": "21:00"}, "operationalInfo": {"storeManager": "JAMIE LEE COSGROVE", "areaRegion": "QLD1CB", "areaRegionMgr": "Matthue Woods", "regionZone": "QLD", "regionZoneMgr": "Mat Davey"}, "openingHoursExceptions": [], "isOpen": true, "openingDate": null, "closingDate": null, "cncEnabled": true, "cncStore": true}, {"locationID": 34256350, "brandID": 3, "storeID": 6691, "latitude": -27.471362, "longitude": 153.097965, "storeName": "Cannon Hill", "address": "Corner Creek Road And Wynnum Road", "suburb": "Cannon Hill", "postcode": "4170", "state": "QLD", "phone": "(07) 3734 0864", "distance": 15.319, "fax": "", "locationFeatures": null, "openingHours": {"mondayOpen": "09:00", "mondayClose": "20:00", "tuesdayOpen": "09:00", "tuesdayClose": "20:00", "wednesdayOpen": "09:00", "wednesdayClose": "20:00", "thursdayOpen": "09:00", "thursdayClose": "21:00", "fridayOpen": "09:00", "fridayClose": "21:00", "saturdayOpen": "09:00", "saturdayClose": "21:00", "sundayOpen": "09:00", "sundayClose": "18:00"}, "operationalInfo": {"storeManager": "PHELAN HOLMES", "areaRegion": "QLD1CB", "areaRegionMgr": "Matthue Woods", "regionZone": "QLD", "regionZoneMgr": "Mat Davey"}, "openingHoursExceptions": [], "isOpen": true, "openingDate": null, "closingDate": null, "cncEnabled": true, "cncStore": true}, {"locationID": 34256186, "brandID": 3, "storeID": 8670, "latitude": -27.501606, "longitude": 152.996858, "storeName": "Ironside", "address": "28 Hawken Drive", "suburb": "St Lucia", "postcode": "4067", "state": "QLD", "phone": "(07) 3734 0882", "distance": 15.349, "fax": "", "locationFeatures": null, "openingHours": {"mondayOpen": "10:00", "mondayClose": "20:00", "tuesdayOpen": "10:00", "tuesdayClose": "20:00", "wednesdayOpen": "10:00", "wednesdayClose": "20:00", "thursdayOpen": "10:00", "thursdayClose": "20:00", "fridayOpen": "10:00", "fridayClose": "21:00", "saturdayOpen": "10:00", "saturdayClose": "21:00", "sundayOpen": "10:00", "sundayClose": "20:00"}, "operationalInfo": {"storeManager": "IAN SPLATT", "areaRegion": "QLD1CB", "areaRegionMgr": "Matthue Woods", "regionZone": "QLD", "regionZoneMgr": "Mat Davey"}, "openingHoursExceptions": [], "isOpen": true, "openingDate": null, "closingDate": null, "cncEnabled": true, "cncStore": true}, {"locationID": 34256253, "brandID": 3, "storeID": 8693, "latitude": -27.722904, "longitude": 153.219827, "storeName": "Beenleigh Tav Liquor", "address": "114 Distillery Road", "suburb": "Beenleigh", "postcode": "4207", "state": "QLD", "phone": "(07) 3726 9653", "distance": 15.761, "fax": "", "locationFeatures": null, "openingHours": {"mondayOpen": "11:00", "mondayClose": "19:00", "tuesdayOpen": "11:00", "tuesdayClose": "19:00", "wednesdayOpen": "11:00", "wednesdayClose": "19:00", "thursdayOpen": "11:00", "thursdayClose": "19:00", "fridayOpen": "10:00", "fridayClose": "20:00", "saturdayOpen": "10:00", "saturdayClose": "20:00", "sundayOpen": "10:00", "sundayClose": "18:00"}, "operationalInfo": {"storeManager": "CANDICE WHAITIRI", "areaRegion": "QNS6", "areaRegionMgr": "Ian Haines", "regionZone": "QNS", "regionZoneMgr": "Adam Hill"}, "openingHoursExceptions": [], "isOpen": true, "openingDate": null, "closingDate": null, "cncEnabled": true, "cncStore": true}, {"locationID": 34255942, "brandID": 3, "storeID": 8340, "latitude": -27.492447, "longitude": 153.216923, "storeName": "Birkdale Grape", "address": "180 Birkdale Road", "suburb": "Birkdale", "postcode": "4159", "state": "QLD", "phone": "(07) 3726 9650", "distance": 15.818, "fax": "", "locationFeatures": null, "openingHours": {"mondayOpen": "10:00", "mondayClose": "20:00", "tuesdayOpen": "10:00", "tuesdayClose": "20:00", "wednesdayOpen": "10:00", "wednesdayClose": "20:00", "thursdayOpen": "10:00", "thursdayClose": "20:00", "fridayOpen": "10:00", "fridayClose": "21:00", "saturdayOpen": "10:00", "saturdayClose": "21:00", "sundayOpen": "10:00", "sundayClose": "20:00"}, "operationalInfo": {"storeManager": "ASHLEY HOFFMAN", "areaRegion": "QNS7", "areaRegionMgr": "Ben Harris", "regionZone": "QNS", "regionZoneMgr": "Adam Hill"}, "openingHoursExceptions": [], "isOpen": true, "openingDate": null, "closingDate": null, "cncEnabled": true, "cncStore": true}, {"locationID": 34256185, "brandID": 3, "storeID": 8669, "latitude": -27.549647, "longitude": 152.93894, "storeName": "Mt Ommaney Centre", "address": "171 Dandenong Road", "suburb": "Mount Ommaney", "postcode": "4074", "state": "QLD", "phone": "(07) 3725 7280", "distance": 16.023, "fax": "", "locationFeatures": null, "openingHours": {"mondayOpen": "09:00", "mondayClose": "20:00", "tuesdayOpen": "09:00", "tuesdayClose": "20:00", "wednesdayOpen": "09:00", "wednesdayClose": "20:00", "thursdayOpen": "09:00", "thursdayClose": "21:00", "fridayOpen": "09:00", "fridayClose": "21:00", "saturdayOpen": "09:00", "saturdayClose": "19:00", "sundayOpen": "09:00", "sundayClose": "18:00"}, "operationalInfo": {"storeManager": "SHELBY COOK", "areaRegion": "QLD8", "areaRegionMgr": "Konrad Kolmet (Secondment)", "regionZone": "QLD", "regionZoneMgr": "Mat Davey"}, "openingHoursExceptions": [], "isOpen": true, "openingDate": null, "closingDate": null, "cncEnabled": true, "cncStore": true}, {"locationID": 34256413, "brandID": 3, "storeID": 6543, "latitude": -27.465241, "longitude": 153.079213, "storeName": "Morningside", "address": "38 Junction Road", "suburb": "Morningside", "postcode": "4170", "state": "QLD", "phone": "(07) 3734 0883", "distance": 16.181, "fax": "", "locationFeatures": null, "openingHours": {"mondayOpen": "09:00", "mondayClose": "21:00", "tuesdayOpen": "09:00", "tuesdayClose": "21:00", "wednesdayOpen": "09:00", "wednesdayClose": "21:00", "thursdayOpen": "09:00", "thursdayClose": "21:00", "fridayOpen": "09:00", "fridayClose": "21:00", "saturdayOpen": "09:00", "saturdayClose": "20:00", "sundayOpen": "10:00", "sundayClose": "18:00"}, "operationalInfo": {"storeManager": "DEVANGKUMAR PATEL", "areaRegion": "QLD1CB", "areaRegionMgr": "Matthue Woods", "regionZone": "QLD", "regionZoneMgr": "Mat Davey"}, "openingHoursExceptions": [], "isOpen": true, "openingDate": null, "closingDate": null, "cncEnabled": true, "cncStore": true}, {"locationID": 34256249, "brandID": 3, "storeID": 8674, "latitude": -27.740514, "longitude": 153.191414, "storeName": "Windaroo", "address": "Corner Carl Heck Boulevarde And Beenleigh-Beaudesert Road", "suburb": "Windaroo", "postcode": "4207", "state": "QLD", "phone": "(07) 3726 9682", "distance": 16.202, "fax": "", "locationFeatures": null, "openingHours": {"mondayOpen": "11:00", "mondayClose": "19:00", "tuesdayOpen": "11:00", "tuesdayClose": "19:00", "wednesdayOpen": "11:00", "wednesdayClose": "19:00", "thursdayOpen": "10:00", "thursdayClose": "19:00", "fridayOpen": "10:00", "fridayClose": "20:00", "saturdayOpen": "10:00", "saturdayClose": "20:00", "sundayOpen": "10:00", "sundayClose": "19:00"}, "operationalInfo": {"storeManager": "KARLIE BARLOW", "areaRegion": "QNS6", "areaRegionMgr": "Ian Haines", "regionZone": "QNS", "regionZoneMgr": "Adam Hill"}, "openingHoursExceptions": [], "isOpen": true, "openingDate": null, "closingDate": null, "cncEnabled": true, "cncStore": true}, {"locationID": 34256009, "brandID": 3, "storeID": 5468, "latitude": -27.486253, "longitude": 153.006413, "storeName": "West End", "address": "168 Hardgrave Road", "suburb": "West End", "postcode": "4101", "state": "QLD", "phone": "(07) 3734 0891", "distance": 16.251, "fax": "", "locationFeatures": null, "openingHours": {"mondayOpen": "10:00", "mondayClose": "20:00", "tuesdayOpen": "10:00", "tuesdayClose": "20:00", "wednesdayOpen": "10:00", "wednesdayClose": "20:00", "thursdayOpen": "10:00", "thursdayClose": "20:00", "fridayOpen": "10:00", "fridayClose": "22:00", "saturdayOpen": "10:00", "saturdayClose": "22:00", "sundayOpen": "10:00", "sundayClose": "20:00"}, "operationalInfo": {"storeManager": "TRACI LEA HAMPSTEAD", "areaRegion": "QLD1CB", "areaRegionMgr": "Matthue Woods", "regionZone": "QLD", "regionZoneMgr": "Mat Davey"}, "openingHoursExceptions": [], "isOpen": true, "openingDate": null, "closingDate": null, "cncEnabled": true, "cncStore": true}, {"locationID": 34255948, "brandID": 3, "storeID": 8368, "latitude": -27.526484, "longitude": 153.268425, "storeName": "Cleveland Sands Bottleshop", "address": "82-100 Middle Street", "suburb": "Cleveland", "postcode": "4163", "state": "QLD", "phone": "(07) 3734 0870", "distance": 16.305, "fax": "", "locationFeatures": null, "openingHours": {"mondayOpen": "09:00", "mondayClose": "19:00", "tuesdayOpen": "09:00", "tuesdayClose": "19:00", "wednesdayOpen": "09:00", "wednesdayClose": "19:00", "thursdayOpen": "09:00", "thursdayClose": "19:00", "fridayOpen": "09:00", "fridayClose": "20:00", "saturdayOpen": "09:00", "saturdayClose": "20:00", "sundayOpen": "09:00", "sundayClose": "18:00"}, "operationalInfo": {"storeManager": "PHILLIP JOHNSON", "areaRegion": "QNS7", "areaRegionMgr": "Ben Harris", "regionZone": "QNS", "regionZoneMgr": "Adam Hill"}, "openingHoursExceptions": [], "isOpen": true, "openingDate": null, "closingDate": null, "cncEnabled": true, "cncStore": true}, {"locationID": 34255949, "brandID": 3, "storeID": 8369, "latitude": -27.526484, "longitude": 153.268425, "storeName": "Cleveland Harbourside Bottleshop", "address": "82-100 Middle Street", "suburb": "Cleveland", "postcode": "4163", "state": "QLD", "phone": "(07) 3734 0871", "distance": 16.305, "fax": "", "locationFeatures": null, "openingHours": {"mondayOpen": "09:00", "mondayClose": "19:00", "tuesdayOpen": "09:00", "tuesdayClose": "19:00", "wednesdayOpen": "09:00", "wednesdayClose": "19:00", "thursdayOpen": "09:00", "thursdayClose": "19:00", "fridayOpen": "09:00", "fridayClose": "20:00", "saturdayOpen": "09:00", "saturdayClose": "20:00", "sundayOpen": "09:00", "sundayClose": "18:00"}, "operationalInfo": {"storeManager": "ROWENA MCCULLOCH", "areaRegion": "QNS7", "areaRegionMgr": "Ben Harris", "regionZone": "QNS", "regionZoneMgr": "Adam Hill"}, "openingHoursExceptions": [], "isOpen": true, "openingDate": null, "closingDate": null, "cncEnabled": true, "cncStore": true}, {"locationID": 34256323, "brandID": 3, "storeID": 6629, "latitude": -27.49839, "longitude": 152.972979, "storeName": "Indooroopilly", "address": "Moggill Road", "suburb": "Indooroopilly", "postcode": "4068", "state": "QLD", "phone": "(07) 3720 3480", "distance": 16.964, "fax": "", "locationFeatures": null, "openingHours": {"mondayOpen": "09:00", "mondayClose": "21:00", "tuesdayOpen": "09:00", "tuesdayClose": "21:00", "wednesdayOpen": "09:00", "wednesdayClose": "21:00", "thursdayOpen": "09:00", "thursdayClose": "22:00", "fridayOpen": "09:00", "fridayClose": "21:00", "saturdayOpen": "09:00", "saturdayClose": "21:00", "sundayOpen": "09:00", "sundayClose": "18:00"}, "operationalInfo": {"storeManager": "EMILY NANCARROW", "areaRegion": "QLD1CB", "areaRegionMgr": "Matthue Woods", "regionZone": "QLD", "regionZoneMgr": "Mat Davey"}, "openingHoursExceptions": [], "isOpen": true, "openingDate": null, "closingDate": null, "cncEnabled": true, "cncStore": true}, {"locationID": 34256043, "brandID": 3, "storeID": 2488, "latitude": -27.485028, "longitude": 152.992567, "storeName": "Toowong", "address": "9 Sherwood Road", "suburb": "Toowong", "postcode": "4066", "state": "QLD", "phone": "(07) 3734 0886", "distance": 17.034, "fax": "", "locationFeatures": null, "openingHours": {"mondayOpen": "10:00", "mondayClose": "20:00", "tuesdayOpen": "10:00", "tuesdayClose": "20:00", "wednesdayOpen": "10:00", "wednesdayClose": "20:00", "thursdayOpen": "09:00", "thursdayClose": "21:00", "fridayOpen": "09:00", "fridayClose": "21:00", "saturdayOpen": "09:00", "saturdayClose": "21:00", "sundayOpen": "09:00", "sundayClose": "18:00"}, "operationalInfo": {"storeManager": "LUKE SMART", "areaRegion": "QLD1CB", "areaRegionMgr": "Matthue Woods", "regionZone": "QLD", "regionZoneMgr": "Mat Davey"}, "openingHoursExceptions": [], "isOpen": true, "openingDate": null, "closingDate": null, "cncEnabled": true, "cncStore": true}, {"locationID": 34256078, "brandID": 3, "storeID": 6014, "latitude": -27.555187, "longitude": 152.922543, "storeName": "Middle Park", "address": "Corner Riverhills Road And Horizon Road", "suburb": "Middle Park", "postcode": "4074", "state": "QLD", "phone": "(07) 3723 3880", "distance": 17.083, "fax": "", "locationFeatures": null, "openingHours": {"mondayOpen": "09:00", "mondayClose": "20:00", "tuesdayOpen": "09:00", "tuesdayClose": "20:00", "wednesdayOpen": "09:00", "wednesdayClose": "20:00", "thursdayOpen": "09:00", "thursdayClose": "20:00", "fridayOpen": "09:00", "fridayClose": "21:00", "saturdayOpen": "09:00", "saturdayClose": "21:00", "sundayOpen": "10:00", "sundayClose": "19:00"}, "operationalInfo": {"storeManager": "JOANNE GRANT", "areaRegion": "QLD8", "areaRegionMgr": "Konrad Kolmet (Secondment)", "regionZone": "QLD", "regionZoneMgr": "Mat Davey"}, "openingHoursExceptions": [], "isOpen": true, "openingDate": null, "closingDate": null, "cncEnabled": true, "cncStore": true}, {"locationID": 34256354, "brandID": 3, "storeID": 7008, "latitude": -27.469152, "longitude": 153.024554, "storeName": "Adelaide Street", "address": "79 Adelaide Street", "suburb": "Brisbane", "postcode": "4000", "state": "QLD", "phone": "(07) 2890 1680", "distance": 17.162, "fax": "", "locationFeatures": null, "openingHours": {"mondayOpen": "09:00", "mondayClose": "21:00", "tuesdayOpen": "09:00", "tuesdayClose": "21:00", "wednesdayOpen": "09:00", "wednesdayClose": "21:00", "thursdayOpen": "09:00", "thursdayClose": "21:00", "fridayOpen": "09:00", "fridayClose": "21:00", "saturdayOpen": "09:00", "saturdayClose": "21:00", "sundayOpen": "10:00", "sundayClose": "18:00"}, "operationalInfo": {"storeManager": "LACHLAN RAFF", "areaRegion": "QLD1CB", "areaRegionMgr": "Matthue Woods", "regionZone": "QLD", "regionZoneMgr": "Mat Davey"}, "openingHoursExceptions": [], "isOpen": true, "openingDate": null, "closingDate": null, "cncEnabled": true, "cncStore": true}, {"locationID": 34256314, "brandID": 3, "storeID": 6510, "latitude": -27.456476, "longitude": 153.154731, "storeName": "Wynnum West", "address": "2021 Wynnum Road", "suburb": "Wynnum West", "postcode": "4178", "state": "QLD", "phone": "(07) 3734 0853", "distance": 17.358, "fax": "", "locationFeatures": null, "openingHours": {"mondayOpen": "09:00", "mondayClose": "20:00", "tuesdayOpen": "09:00", "tuesdayClose": "20:00", "wednesdayOpen": "09:00", "wednesdayClose": "20:00", "thursdayOpen": "09:00", "thursdayClose": "21:00", "fridayOpen": "09:00", "fridayClose": "21:00", "saturdayOpen": "09:00", "saturdayClose": "21:00", "sundayOpen": "09:00", "sundayClose": "18:00"}, "operationalInfo": {"storeManager": "JOEL POLAK", "areaRegion": "QLD1CB", "areaRegionMgr": "Matthue Woods", "regionZone": "QLD", "regionZoneMgr": "Mat Davey"}, "openingHoursExceptions": [], "isOpen": true, "openingDate": null, "closingDate": null, "cncEnabled": true, "cncStore": true}, {"locationID": 34256225, "brandID": 3, "storeID": 6136, "latitude": -27.454041, "longitude": 153.167096, "storeName": "Wynnum", "address": "210 West Avenue", "suburb": "Wynnum", "postcode": "4178", "state": "QLD", "phone": "(07) 3734 0843", "distance": 17.879, "fax": "", "locationFeatures": null, "openingHours": {"mondayOpen": "09:00", "mondayClose": "20:00", "tuesdayOpen": "09:00", "tuesdayClose": "20:00", "wednesdayOpen": "09:00", "wednesdayClose": "20:00", "thursdayOpen": "09:00", "thursdayClose": "20:00", "fridayOpen": "09:00", "fridayClose": "21:00", "saturdayOpen": "09:00", "saturdayClose": "20:00", "sundayOpen": "10:00", "sundayClose": "19:00"}, "operationalInfo": {"storeManager": "ZOE JEFFERIES", "areaRegion": "QLD1CB", "areaRegionMgr": "Matthue Woods", "regionZone": "QLD", "regionZoneMgr": "Mat Davey"}, "openingHoursExceptions": [], "isOpen": true, "openingDate": null, "closingDate": null, "cncEnabled": true, "cncStore": true}, {"locationID": 34256352, "brandID": 3, "storeID": 6723, "latitude": -27.506585, "longitude": 152.948397, "storeName": "Kenmore Plaza Cellars", "address": "841 Moggill Road", "suburb": "Kenmore", "postcode": "4069", "state": "QLD", "phone": "(07) 3726 9609", "distance": 17.881, "fax": "", "locationFeatures": null, "openingHours": {"mondayOpen": "09:00", "mondayClose": "20:00", "tuesdayOpen": "09:00", "tuesdayClose": "20:00", "wednesdayOpen": "09:00", "wednesdayClose": "20:00", "thursdayOpen": "09:00", "thursdayClose": "21:00", "fridayOpen": "09:00", "fridayClose": "21:00", "saturdayOpen": "09:00", "saturdayClose": "21:00", "sundayOpen": "10:00", "sundayClose": "19:00"}, "operationalInfo": {"storeManager": "MEGAN ADSETT", "areaRegion": "QLD1CB", "areaRegionMgr": "Matthue Woods", "regionZone": "QLD", "regionZoneMgr": "Mat Davey"}, "openingHoursExceptions": [], "isOpen": true, "openingDate": null, "closingDate": null, "cncEnabled": true, "cncStore": true}, {"locationID": 34256088, "brandID": 3, "storeID": 6079, "latitude": -27.468931, "longitude": 153.002931, "storeName": "Milton Village", "address": "12-36 Baroona Road", "suburb": "Milton", "postcode": "4064", "state": "QLD", "phone": "(07) 3726 9657", "distance": 18.046, "fax": "", "locationFeatures": null, "openingHours": {"mondayOpen": "10:00", "mondayClose": "21:00", "tuesdayOpen": "10:00", "tuesdayClose": "21:00", "wednesdayOpen": "10:00", "wednesdayClose": "21:00", "thursdayOpen": "10:00", "thursdayClose": "21:00", "fridayOpen": "10:00", "fridayClose": "22:00", "saturdayOpen": "10:00", "saturdayClose": "22:00", "sundayOpen": "10:00", "sundayClose": "21:00"}, "operationalInfo": {"storeManager": "TY JAQUES", "areaRegion": "QLD2CB", "areaRegionMgr": "Kellianne Doyle", "regionZone": "QLD", "regionZoneMgr": "Mat Davey"}, "openingHoursExceptions": [], "isOpen": true, "openingDate": null, "closingDate": null, "cncEnabled": true, "cncStore": true}, {"locationID": 34256353, "brandID": 3, "storeID": 6726, "latitude": -27.506207, "longitude": 152.939, "storeName": "Kenmore Village", "address": "9 Brookfield Road", "suburb": "Brookfield", "postcode": "4069", "state": "QLD", "phone": "(07) 3726 9621", "distance": 18.533, "fax": "", "locationFeatures": null, "openingHours": {"mondayOpen": "09:00", "mondayClose": "20:00", "tuesdayOpen": "09:00", "tuesdayClose": "20:00", "wednesdayOpen": "09:00", "wednesdayClose": "20:00", "thursdayOpen": "09:00", "thursdayClose": "21:00", "fridayOpen": "09:00", "fridayClose": "21:00", "saturdayOpen": "09:00", "saturdayClose": "20:00", "sundayOpen": "09:00", "sundayClose": "18:00"}, "operationalInfo": {"storeManager": "", "areaRegion": "QLD1CB", "areaRegionMgr": "Matthue Woods", "regionZone": "QLD", "regionZoneMgr": "Mat Davey"}, "openingHoursExceptions": [], "isOpen": true, "openingDate": null, "closingDate": null, "cncEnabled": true, "cncStore": true}, {"locationID": 34256308, "brandID": 3, "storeID": 6478, "latitude": -27.676598, "longitude": 152.902948, "storeName": "Springfield Orion", "address": "1 Main Street", "suburb": "Springfield Central", "postcode": "4300", "state": "QLD", "phone": "(07) 3470 3180", "distance": 19.221, "fax": "", "locationFeatures": null, "openingHours": {"mondayOpen": "09:00", "mondayClose": "20:00", "tuesdayOpen": "09:00", "tuesdayClose": "20:00", "wednesdayOpen": "09:00", "wednesdayClose": "20:00", "thursdayOpen": "09:00", "thursdayClose": "21:00", "fridayOpen": "09:00", "fridayClose": "21:00", "saturdayOpen": "09:00", "saturdayClose": "21:00", "sundayOpen": "09:00", "sundayClose": "18:00"}, "operationalInfo": {"storeManager": "JESSICA BUCKINGHAM", "areaRegion": "QLD8", "areaRegionMgr": "Konrad Kolmet (Secondment)", "regionZone": "QLD", "regionZoneMgr": "Mat Davey"}, "openingHoursExceptions": [], "isOpen": true, "openingDate": null, "closingDate": null, "cncEnabled": true, "cncStore": true}, {"locationID": 34256241, "brandID": 3, "storeID": 6222, "latitude": -27.455153, "longitude": 153.006767, "storeName": "Red Hill", "address": "152 Musgrave Road", "suburb": "Red Hill", "postcode": "4059", "state": "QLD", "phone": "(07) 3734 0849", "distance": 19.23, "fax": "", "locationFeatures": null, "openingHours": {"mondayOpen": "11:00", "mondayClose": "20:00", "tuesdayOpen": "11:00", "tuesdayClose": "20:00", "wednesdayOpen": "11:00", "wednesdayClose": "20:00", "thursdayOpen": "11:00", "thursdayClose": "21:00", "fridayOpen": "10:00", "fridayClose": "21:00", "saturdayOpen": "10:00", "saturdayClose": "21:00", "sundayOpen": "11:00", "sundayClose": "20:00"}, "operationalInfo": {"storeManager": "DONNA GRAHAM", "areaRegion": "QLD2CB", "areaRegionMgr": "Kellianne Doyle", "regionZone": "QLD", "regionZoneMgr": "Mat Davey"}, "openingHoursExceptions": [], "isOpen": true, "openingDate": null, "closingDate": null, "cncEnabled": true, "cncStore": true}, {"locationID": 34256336, "brandID": 3, "storeID": 6664, "latitude": -27.458331, "longitude": 152.995581, "storeName": "Paddington", "address": "147 Latrobe Terrace", "suburb": "Paddington", "postcode": "4064", "state": "QLD", "phone": "(07) 3734 0862", "distance": 19.38, "fax": "", "locationFeatures": null, "openingHours": {"mondayOpen": "10:00", "mondayClose": "21:00", "tuesdayOpen": "10:00", "tuesdayClose": "21:00", "wednesdayOpen": "10:00", "wednesdayClose": "21:00", "thursdayOpen": "10:00", "thursdayClose": "21:00", "fridayOpen": "10:00", "fridayClose": "21:00", "saturdayOpen": "10:00", "saturdayClose": "21:00", "sundayOpen": "10:00", "sundayClose": "21:00"}, "operationalInfo": {"storeManager": "MICHAEL EXLEY", "areaRegion": "QLD2CB", "areaRegionMgr": "Kellianne Doyle", "regionZone": "QLD", "regionZoneMgr": "Mat Davey"}, "openingHoursExceptions": [], "isOpen": true, "openingDate": null, "closingDate": null, "cncEnabled": true, "cncStore": true}, {"locationID": 34256337, "brandID": 3, "storeID": 6666, "latitude": -27.434076, "longitude": 153.065449, "storeName": "Ascot", "address": "Corner Racecourse Street And Dobson Street", "suburb": "Ascot", "postcode": "4007", "state": "QLD", "phone": "(07) 2105 0580", "distance": 19.801, "fax": "", "locationFeatures": null, "openingHours": {"mondayOpen": "09:00", "mondayClose": "21:00", "tuesdayOpen": "09:00", "tuesdayClose": "21:00", "wednesdayOpen": "09:00", "wednesdayClose": "21:00", "thursdayOpen": "09:00", "thursdayClose": "21:00", "fridayOpen": "09:00", "fridayClose": "21:00", "saturdayOpen": "09:00", "saturdayClose": "21:00", "sundayOpen": "10:00", "sundayClose": "19:00"}, "operationalInfo": {"storeManager": "STEPHEN HOHIPA", "areaRegion": "QLD2CB", "areaRegionMgr": "Kellianne Doyle", "regionZone": "QLD", "regionZoneMgr": "Mat Davey"}, "openingHoursExceptions": [], "isOpen": true, "openingDate": null, "closingDate": null, "cncEnabled": true, "cncStore": true}]