[{"locationID": 34256298, "brandID": 3, "storeID": 6323, "latitude": -27.784265, "longitude": 153.262239, "storeName": "Ormeau Village", "address": "40 Eggersdorf Road", "suburb": "Ormeau", "postcode": "4208", "state": "QLD", "phone": "(07) 5645 1280", "distance": 4.105, "fax": "", "locationFeatures": null, "openingHours": {"mondayOpen": "09:00", "mondayClose": "20:00", "tuesdayOpen": "09:00", "tuesdayClose": "20:00", "wednesdayOpen": "09:00", "wednesdayClose": "20:00", "thursdayOpen": "09:00", "thursdayClose": "21:00", "fridayOpen": "09:00", "fridayClose": "21:00", "saturdayOpen": "09:00", "saturdayClose": "20:00", "sundayOpen": "09:00", "sundayClose": "18:00"}, "operationalInfo": {"storeManager": "HITESH NAYYAR", "areaRegion": "QNS6", "areaRegionMgr": "Ian Haines", "regionZone": "QNS", "regionZoneMgr": "Adam Hill"}, "openingHoursExceptions": [], "isOpen": true, "openingDate": null, "closingDate": null, "cncEnabled": true, "cncStore": true}, {"locationID": 34256297, "brandID": 3, "storeID": 6310, "latitude": -27.851378, "longitude": 153.300593, "storeName": "Coomera City Centre", "address": "Old Coach Road And City Centre Drive", "suburb": "Upper Coomera", "postcode": "4209", "state": "QLD", "phone": "(07) 5680 9480", "distance": 4.314, "fax": "", "locationFeatures": null, "openingHours": {"mondayOpen": "09:00", "mondayClose": "20:00", "tuesdayOpen": "09:00", "tuesdayClose": "20:00", "wednesdayOpen": "09:00", "wednesdayClose": "20:00", "thursdayOpen": "09:00", "thursdayClose": "21:00", "fridayOpen": "09:00", "fridayClose": "21:00", "saturdayOpen": "09:00", "saturdayClose": "21:00", "sundayOpen": "09:00", "sundayClose": "18:00"}, "operationalInfo": {"storeManager": "DANIEL WESTROP", "areaRegion": "QNS5", "areaRegionMgr": "Luke Pope (Secondment)", "regionZone": "QNS", "regionZoneMgr": "Adam Hill"}, "openingHoursExceptions": [], "isOpen": true, "openingDate": null, "closingDate": null, "cncEnabled": true, "cncStore": true}, {"locationID": 34256076, "brandID": 3, "storeID": 6008, "latitude": -27.8536, "longitude": 153.315, "storeName": "Coomera Town Centre", "address": "73 Foxwell Road", "suburb": "Coomera", "postcode": "4209", "state": "QLD", "phone": "(07) 5605 8780", "distance": 4.902, "fax": "", "locationFeatures": null, "openingHours": {"mondayOpen": "09:00", "mondayClose": "19:00", "tuesdayOpen": "09:00", "tuesdayClose": "19:00", "wednesdayOpen": "09:00", "wednesdayClose": "20:00", "thursdayOpen": "09:00", "thursdayClose": "21:00", "fridayOpen": "09:00", "fridayClose": "21:00", "saturdayOpen": "09:00", "saturdayClose": "21:00", "sundayOpen": "10:00", "sundayClose": "18:00"}, "operationalInfo": {"storeManager": "ALEXANDRE BRENNAN", "areaRegion": "QNS5", "areaRegionMgr": "Luke Pope (Secondment)", "regionZone": "QNS", "regionZoneMgr": "Adam Hill"}, "openingHoursExceptions": [], "isOpen": true, "openingDate": null, "closingDate": null, "cncEnabled": true, "cncStore": true}, {"locationID": 34256250, "brandID": 3, "storeID": 8675, "latitude": -27.763766, "longitude": 153.24454, "storeName": "Ormeau", "address": "180 Pascoe Road", "suburb": "Ormeau", "postcode": "4208", "state": "QLD", "phone": "(07) 3726 9694", "distance": 6.833, "fax": "", "locationFeatures": null, "openingHours": {"mondayOpen": "10:00", "mondayClose": "19:00", "tuesdayOpen": "10:00", "tuesdayClose": "19:00", "wednesdayOpen": "10:00", "wednesdayClose": "19:00", "thursdayOpen": "10:00", "thursdayClose": "20:00", "fridayOpen": "10:00", "fridayClose": "20:00", "saturdayOpen": "10:00", "saturdayClose": "20:00", "sundayOpen": "10:00", "sundayClose": "19:00"}, "operationalInfo": {"storeManager": "PETER CASHIN", "areaRegion": "QNS6", "areaRegionMgr": "Ian Haines", "regionZone": "QNS", "regionZoneMgr": "Adam Hill"}, "openingHoursExceptions": [], "isOpen": true, "openingDate": null, "closingDate": null, "cncEnabled": true, "cncStore": true}, {"locationID": 34256415, "brandID": 3, "storeID": 6545, "latitude": -27.878507, "longitude": 153.36488, "storeName": "Hope Island", "address": "87-97 Broadwater Avenue", "suburb": "Hope Island", "postcode": "4212", "state": "QLD", "phone": "(07) 3726 9619", "distance": 9.552, "fax": "", "locationFeatures": null, "openingHours": {"mondayOpen": "10:00", "mondayClose": "20:00", "tuesdayOpen": "10:00", "tuesdayClose": "20:00", "wednesdayOpen": "10:00", "wednesdayClose": "20:00", "thursdayOpen": "10:00", "thursdayClose": "20:00", "fridayOpen": "10:00", "fridayClose": "21:00", "saturdayOpen": "10:00", "saturdayClose": "21:00", "sundayOpen": "10:00", "sundayClose": "19:00"}, "operationalInfo": {"storeManager": "COREY GODWIN", "areaRegion": "QNS5", "areaRegionMgr": "Luke Pope (Secondment)", "regionZone": "QNS", "regionZoneMgr": "Adam Hill"}, "openingHoursExceptions": [], "isOpen": true, "openingDate": null, "closingDate": null, "cncEnabled": true, "cncStore": true}, {"locationID": 34255951, "brandID": 3, "storeID": 8373, "latitude": -27.913858, "longitude": 153.282881, "storeName": "Coomera Lodge Bottleshop", "address": "160 Maudsland Road", "suburb": "Upper Coomera", "postcode": "4209", "state": "QLD", "phone": "(07) 3726 9625", "distance": 11.231, "fax": "", "locationFeatures": null, "openingHours": {"mondayOpen": "10:00", "mondayClose": "19:00", "tuesdayOpen": "10:00", "tuesdayClose": "19:00", "wednesdayOpen": "10:00", "wednesdayClose": "20:00", "thursdayOpen": "10:00", "thursdayClose": "20:00", "fridayOpen": "10:00", "fridayClose": "21:00", "saturdayOpen": "10:00", "saturdayClose": "20:00", "sundayOpen": "10:00", "sundayClose": "19:00"}, "operationalInfo": {"storeManager": "AMEIKA WATSON", "areaRegion": "QNS5", "areaRegionMgr": "Luke Pope (Secondment)", "regionZone": "QNS", "regionZoneMgr": "Adam Hill"}, "openingHoursExceptions": [], "isOpen": true, "openingDate": null, "closingDate": null, "cncEnabled": true, "cncStore": true}, {"locationID": 34256253, "brandID": 3, "storeID": 8693, "latitude": -27.722904, "longitude": 153.219827, "storeName": "Beenleigh Tav Liquor", "address": "114 Distillery Road", "suburb": "Beenleigh", "postcode": "4207", "state": "QLD", "phone": "(07) 3726 9653", "distance": 11.782, "fax": "", "locationFeatures": null, "openingHours": {"mondayOpen": "11:00", "mondayClose": "19:00", "tuesdayOpen": "11:00", "tuesdayClose": "19:00", "wednesdayOpen": "11:00", "wednesdayClose": "19:00", "thursdayOpen": "11:00", "thursdayClose": "19:00", "fridayOpen": "10:00", "fridayClose": "20:00", "saturdayOpen": "10:00", "saturdayClose": "20:00", "sundayOpen": "10:00", "sundayClose": "18:00"}, "operationalInfo": {"storeManager": "CANDICE WHAITIRI", "areaRegion": "QNS6", "areaRegionMgr": "Ian Haines", "regionZone": "QNS", "regionZoneMgr": "Adam Hill"}, "openingHoursExceptions": [], "isOpen": true, "openingDate": null, "closingDate": null, "cncEnabled": true, "cncStore": true}, {"locationID": 34256249, "brandID": 3, "storeID": 8674, "latitude": -27.740514, "longitude": 153.191414, "storeName": "Windaroo", "address": "Corner Carl Heck Boulevarde And Beenleigh-Beaudesert Road", "suburb": "Windaroo", "postcode": "4207", "state": "QLD", "phone": "(07) 3726 9682", "distance": 11.797, "fax": "", "locationFeatures": null, "openingHours": {"mondayOpen": "11:00", "mondayClose": "19:00", "tuesdayOpen": "11:00", "tuesdayClose": "19:00", "wednesdayOpen": "11:00", "wednesdayClose": "19:00", "thursdayOpen": "10:00", "thursdayClose": "19:00", "fridayOpen": "10:00", "fridayClose": "20:00", "saturdayOpen": "10:00", "saturdayClose": "20:00", "sundayOpen": "10:00", "sundayClose": "19:00"}, "operationalInfo": {"storeManager": "KARLIE BARLOW", "areaRegion": "QNS6", "areaRegionMgr": "Ian Haines", "regionZone": "QNS", "regionZoneMgr": "Adam Hill"}, "openingHoursExceptions": [], "isOpen": true, "openingDate": null, "closingDate": null, "cncEnabled": true, "cncStore": true}, {"locationID": 34256073, "brandID": 3, "storeID": 6003, "latitude": -27.92507, "longitude": 153.306145, "storeName": "Pacific Pines (pitcairn Way)", "address": "Corner Binstead Way And Pitcairn Way", "suburb": "Pacific Pines", "postcode": "4211", "state": "QLD", "phone": "(07) 5644 1380", "distance": 12.506, "fax": "", "locationFeatures": null, "openingHours": {"mondayOpen": "09:00", "mondayClose": "21:00", "tuesdayOpen": "09:00", "tuesdayClose": "21:00", "wednesdayOpen": "09:00", "wednesdayClose": "21:00", "thursdayOpen": "09:00", "thursdayClose": "21:00", "fridayOpen": "09:00", "fridayClose": "21:00", "saturdayOpen": "09:00", "saturdayClose": "21:00", "sundayOpen": "09:00", "sundayClose": "19:00"}, "operationalInfo": {"storeManager": "CHRISTOPHER COE", "areaRegion": "QNS5", "areaRegionMgr": "Luke Pope (Secondment)", "regionZone": "QNS", "regionZoneMgr": "Adam Hill"}, "openingHoursExceptions": [], "isOpen": true, "openingDate": null, "closingDate": null, "cncEnabled": true, "cncStore": true}, {"locationID": 34256237, "brandID": 3, "storeID": 6203, "latitude": -27.899853, "longitude": 153.385617, "storeName": "Coombabah", "address": "21 Hansford Road", "suburb": "Coombabah", "postcode": "4216", "state": "QLD", "phone": "(07) 3734 0846", "distance": 12.508, "fax": "", "locationFeatures": null, "openingHours": {"mondayOpen": "10:00", "mondayClose": "19:00", "tuesdayOpen": "10:00", "tuesdayClose": "19:00", "wednesdayOpen": "10:00", "wednesdayClose": "19:00", "thursdayOpen": "10:00", "thursdayClose": "20:00", "fridayOpen": "10:00", "fridayClose": "20:00", "saturdayOpen": "10:00", "saturdayClose": "20:00", "sundayOpen": "10:00", "sundayClose": "19:00"}, "operationalInfo": {"storeManager": "TINA WILSON", "areaRegion": "QNS5", "areaRegionMgr": "Luke Pope (Secondment)", "regionZone": "QNS", "regionZoneMgr": "Adam Hill"}, "openingHoursExceptions": [], "isOpen": true, "openingDate": null, "closingDate": null, "cncEnabled": true, "cncStore": true}, {"locationID": 34256414, "brandID": 3, "storeID": 6544, "latitude": -27.925676, "longitude": 153.323704, "storeName": "Pacific Pines", "address": "2 Universal Street", "suburb": "Pacific Pines", "postcode": "4211", "state": "QLD", "phone": "(07) 3726 9696", "distance": 12.801, "fax": "", "locationFeatures": null, "openingHours": {"mondayOpen": "10:00", "mondayClose": "19:00", "tuesdayOpen": "10:00", "tuesdayClose": "19:00", "wednesdayOpen": "10:00", "wednesdayClose": "19:00", "thursdayOpen": "10:00", "thursdayClose": "20:00", "fridayOpen": "10:00", "fridayClose": "21:00", "saturdayOpen": "10:00", "saturdayClose": "21:00", "sundayOpen": "10:00", "sundayClose": "19:00"}, "operationalInfo": {"storeManager": "PAUL RANISAV", "areaRegion": "QNS5", "areaRegionMgr": "Luke Pope (Secondment)", "regionZone": "QNS", "regionZoneMgr": "Adam Hill"}, "openingHoursExceptions": [], "isOpen": true, "openingDate": null, "closingDate": null, "cncEnabled": true, "cncStore": true}, {"locationID": 34256072, "brandID": 3, "storeID": 6002, "latitude": -27.718445, "longitude": 153.202353, "storeName": "Beenleigh", "address": "19 Tansey Street", "suburb": "Beenleigh", "postcode": "4207", "state": "QLD", "phone": "(07) 3726 9698", "distance": 13.025, "fax": "", "locationFeatures": null, "openingHours": {"mondayOpen": "09:00", "mondayClose": "20:00", "tuesdayOpen": "09:00", "tuesdayClose": "20:00", "wednesdayOpen": "09:00", "wednesdayClose": "20:00", "thursdayOpen": "09:00", "thursdayClose": "20:00", "fridayOpen": "09:00", "fridayClose": "21:00", "saturdayOpen": "09:00", "saturdayClose": "20:00", "sundayOpen": "09:00", "sundayClose": "18:00"}, "operationalInfo": {"storeManager": "SAMANTHA BILLIAU", "areaRegion": "QNS6", "areaRegionMgr": "Ian Haines", "regionZone": "QNS", "regionZoneMgr": "Adam Hill"}, "openingHoursExceptions": [], "isOpen": true, "openingDate": null, "closingDate": null, "cncEnabled": true, "cncStore": true}, {"locationID": 34256183, "brandID": 3, "storeID": 8643, "latitude": -27.700065, "longitude": 153.168514, "storeName": "Edens Landing Liquor King", "address": "127 Castille Crescent", "suburb": "Edens Landing", "postcode": "4207", "state": "QLD", "phone": "(07) 3734 0875", "distance": 16.415, "fax": "", "locationFeatures": null, "openingHours": {"mondayOpen": "11:00", "mondayClose": "19:00", "tuesdayOpen": "11:00", "tuesdayClose": "19:00", "wednesdayOpen": "11:00", "wednesdayClose": "19:00", "thursdayOpen": "11:00", "thursdayClose": "19:00", "fridayOpen": "11:00", "fridayClose": "20:00", "saturdayOpen": "11:00", "saturdayClose": "20:00", "sundayOpen": "11:00", "sundayClose": "19:00"}, "operationalInfo": {"storeManager": "MATTHEW KNIGHT", "areaRegion": "QNS6", "areaRegionMgr": "Ian Haines", "regionZone": "QNS", "regionZoneMgr": "Adam Hill"}, "openingHoursExceptions": [], "isOpen": true, "openingDate": null, "closingDate": null, "cncEnabled": true, "cncStore": true}, {"locationID": 34256180, "brandID": 3, "storeID": 8640, "latitude": -27.690339, "longitude": 153.177928, "storeName": "Clarks Rd Liquor King", "address": "2-8 Ascot Drive", "suburb": "Loganholme", "postcode": "4129", "state": "QLD", "phone": "(07) 3734 0873", "distance": 16.778, "fax": "", "locationFeatures": null, "openingHours": {"mondayOpen": "10:00", "mondayClose": "20:00", "tuesdayOpen": "10:00", "tuesdayClose": "20:00", "wednesdayOpen": "10:00", "wednesdayClose": "20:00", "thursdayOpen": "10:00", "thursdayClose": "20:00", "fridayOpen": "10:00", "fridayClose": "21:00", "saturdayOpen": "10:00", "saturdayClose": "20:00", "sundayOpen": "10:00", "sundayClose": "19:00"}, "operationalInfo": {"storeManager": "MICHAEL HALL", "areaRegion": "QNS6", "areaRegionMgr": "Ian Haines", "regionZone": "QNS", "regionZoneMgr": "Adam Hill"}, "openingHoursExceptions": [], "isOpen": true, "openingDate": null, "closingDate": null, "cncEnabled": true, "cncStore": true}, {"locationID": 34256238, "brandID": 3, "storeID": 6204, "latitude": -27.951385, "longitude": 153.408099, "storeName": "Labrador", "address": "36 Frank Street", "suburb": "Labrador", "postcode": "4215", "state": "QLD", "phone": "(07) 3734 0847", "distance": 18.277, "fax": "", "locationFeatures": null, "openingHours": {"mondayOpen": "09:00", "mondayClose": "20:00", "tuesdayOpen": "09:00", "tuesdayClose": "20:00", "wednesdayOpen": "09:00", "wednesdayClose": "20:00", "thursdayOpen": "09:00", "thursdayClose": "20:00", "fridayOpen": "09:00", "fridayClose": "21:00", "saturdayOpen": "09:00", "saturdayClose": "21:00", "sundayOpen": "09:00", "sundayClose": "20:00"}, "operationalInfo": {"storeManager": "", "areaRegion": "QNS5", "areaRegionMgr": "Luke Pope (Secondment)", "regionZone": "QNS", "regionZoneMgr": "Adam Hill"}, "openingHoursExceptions": [], "isOpen": true, "openingDate": null, "closingDate": null, "cncEnabled": true, "cncStore": true}, {"locationID": 34256182, "brandID": 3, "storeID": 8642, "latitude": -27.693008, "longitude": 153.143167, "storeName": "Fitzys Waterford", "address": "24-34 Albert Street", "suburb": "Waterford", "postcode": "4133", "state": "QLD", "phone": "(07) 3726 9672", "distance": 18.442, "fax": "", "locationFeatures": null, "openingHours": {"mondayOpen": "10:00", "mondayClose": "20:00", "tuesdayOpen": "10:00", "tuesdayClose": "20:00", "wednesdayOpen": "10:00", "wednesdayClose": "20:00", "thursdayOpen": "10:00", "thursdayClose": "21:00", "fridayOpen": "10:00", "fridayClose": "22:00", "saturdayOpen": "10:00", "saturdayClose": "22:00", "sundayOpen": "10:00", "sundayClose": "19:00"}, "operationalInfo": {"storeManager": "PETER FULLER", "areaRegion": "QNS6", "areaRegionMgr": "Ian Haines", "regionZone": "QNS", "regionZoneMgr": "Adam Hill"}, "openingHoursExceptions": [], "isOpen": true, "openingDate": null, "closingDate": null, "cncEnabled": true, "cncStore": true}, {"locationID": 34256168, "brandID": 3, "storeID": 6113, "latitude": -27.692578, "longitude": 153.135438, "storeName": "Waterford Plaza Cellars", "address": "Corner Kingston-Beenleigh Road And Tygum Road", "suburb": "Waterford", "postcode": "4133", "state": "QLD", "phone": "(07) 3734 0840", "distance": 18.937, "fax": "", "locationFeatures": null, "openingHours": {"mondayOpen": "09:00", "mondayClose": "19:00", "tuesdayOpen": "09:00", "tuesdayClose": "19:00", "wednesdayOpen": "09:00", "wednesdayClose": "19:00", "thursdayOpen": "09:00", "thursdayClose": "20:00", "fridayOpen": "09:00", "fridayClose": "20:00", "saturdayOpen": "09:00", "saturdayClose": "20:00", "sundayOpen": "09:00", "sundayClose": "18:00"}, "operationalInfo": {"storeManager": "CALEB KJAERGAARD", "areaRegion": "QNS6", "areaRegionMgr": "Ian Haines", "regionZone": "QNS", "regionZoneMgr": "Adam Hill"}, "openingHoursExceptions": [], "isOpen": true, "openingDate": null, "closingDate": null, "cncEnabled": true, "cncStore": true}, {"locationID": 34256181, "brandID": 3, "storeID": 8641, "latitude": -27.663414, "longitude": 153.175631, "storeName": "Loganholme Shopping Village", "address": "37-59 Bryants Road", "suburb": "Loganholme", "postcode": "4129", "state": "QLD", "phone": "(07) 3734 0874", "distance": 19.393, "fax": "", "locationFeatures": null, "openingHours": {"mondayOpen": "10:00", "mondayClose": "20:00", "tuesdayOpen": "10:00", "tuesdayClose": "20:00", "wednesdayOpen": "10:00", "wednesdayClose": "20:00", "thursdayOpen": "10:00", "thursdayClose": "21:00", "fridayOpen": "10:00", "fridayClose": "21:00", "saturdayOpen": "10:00", "saturdayClose": "21:00", "sundayOpen": "10:00", "sundayClose": "20:00"}, "operationalInfo": {"storeManager": "ROBERT OSWALD", "areaRegion": "QNS6", "areaRegionMgr": "Ian Haines", "regionZone": "QNS", "regionZoneMgr": "Adam Hill"}, "openingHoursExceptions": [], "isOpen": true, "openingDate": null, "closingDate": null, "cncEnabled": true, "cncStore": true}, {"locationID": 34256179, "brandID": 3, "storeID": 8638, "latitude": -27.66163, "longitude": 153.17115, "storeName": "Fitzys Loganholme Drive", "address": "Corner Pacific Highway And Bryants Road", "suburb": "Loganholme", "postcode": "4129", "state": "QLD", "phone": "(07) 3726 9651", "distance": 19.761, "fax": "", "locationFeatures": null, "openingHours": {"mondayOpen": "10:00", "mondayClose": "21:00", "tuesdayOpen": "10:00", "tuesdayClose": "21:00", "wednesdayOpen": "10:00", "wednesdayClose": "21:00", "thursdayOpen": "10:00", "thursdayClose": "22:00", "fridayOpen": "10:00", "fridayClose": "22:00", "saturdayOpen": "10:00", "saturdayClose": "22:00", "sundayOpen": "10:00", "sundayClose": "20:00"}, "operationalInfo": {"storeManager": "JADE KEENE", "areaRegion": "QNS6", "areaRegionMgr": "Ian Haines", "regionZone": "QNS", "regionZoneMgr": "Adam Hill"}, "openingHoursExceptions": [], "isOpen": true, "openingDate": null, "closingDate": null, "cncEnabled": true, "cncStore": true}, {"locationID": 34256418, "brandID": 3, "storeID": 6597, "latitude": -27.6616, "longitude": 153.171, "storeName": "Hyperdome Liquor King", "address": "14-38 Bryants Road", "suburb": "Loganholme", "postcode": "4129", "state": "QLD", "phone": "(07) 3734 0809", "distance": 19.771, "fax": "", "locationFeatures": null, "openingHours": {"mondayOpen": "09:00", "mondayClose": "20:00", "tuesdayOpen": "09:00", "tuesdayClose": "20:00", "wednesdayOpen": "09:00", "wednesdayClose": "20:00", "thursdayOpen": "09:00", "thursdayClose": "21:00", "fridayOpen": "09:00", "fridayClose": "21:00", "saturdayOpen": "09:00", "saturdayClose": "21:00", "sundayOpen": "09:00", "sundayClose": "18:00"}, "operationalInfo": {"storeManager": "PAREURUORA TAPSELL", "areaRegion": "QNS6", "areaRegionMgr": "Ian Haines", "regionZone": "QNS", "regionZoneMgr": "Adam Hill"}, "openingHoursExceptions": [], "isOpen": true, "openingDate": null, "closingDate": null, "cncEnabled": true, "cncStore": true}, {"locationID": 34256421, "brandID": 3, "storeID": 6608, "latitude": -27.977818, "longitude": 153.380717, "storeName": "Ashmore", "address": "Corner Nerang-Southport Road And Currumburra Road", "suburb": "Ashmore", "postcode": "4214", "state": "QLD", "phone": "(07) 3726 9689", "distance": 19.809, "fax": "", "locationFeatures": null, "openingHours": {"mondayOpen": "09:00", "mondayClose": "19:00", "tuesdayOpen": "09:00", "tuesdayClose": "19:00", "wednesdayOpen": "09:00", "wednesdayClose": "19:00", "thursdayOpen": "09:00", "thursdayClose": "19:00", "fridayOpen": "09:00", "fridayClose": "21:00", "saturdayOpen": "09:00", "saturdayClose": "18:00", "sundayOpen": "10:00", "sundayClose": "18:00"}, "operationalInfo": {"storeManager": "", "areaRegion": "QNS5", "areaRegionMgr": "Luke Pope (Secondment)", "regionZone": "QNS", "regionZoneMgr": "Adam Hill"}, "openingHoursExceptions": [], "isOpen": true, "openingDate": null, "closingDate": null, "cncEnabled": true, "cncStore": true}]